,categories,id,image_url,name,price,rating,review_count,latitude,longitude,city
2404,"[{'alias': 'tradamerican', 'title': 'American (Traditional)'}, {'alias': 'sandwiches', 'title': 'Sandwiches'}]",h7_M9pgY_hPdYMJNQdmHBg,https://s3-media2.fl.yelpcdn.com/bphoto/MiBdlz8-04GFHvv8-WskGQ/o.jpg,Taylor's At Market Square,1,4.0,11,37.422293,-77.636563,Midlothian
3464,"[{'alias': 'salad', 'title': 'Salad'}, {'alias': 'coffee', 'title': 'Coffee & Tea'}, {'alias': 'sandwiches', 'title': 'Sandwiches'}]",HU37kM5fC1zbchGILJTh3A,https://s3-media3.fl.yelpcdn.com/bphoto/j2mTjYfTTnQLlKQ1_kMgjw/o.jpg,Green House Coffee,1,4.5,37,38.070598,-78.700219,Crozet
3616,"[{'alias': 'tradamerican', 'title': 'American (Traditional)'}, {'alias': 'buffets', 'title': 'Buffets'}, {'alias': 'breakfast_brunch', 'title': 'Breakfast & Brunch'}]",aHo6OehrCJAM228b_2yTOA,https://s3-media3.fl.yelpcdn.com/bphoto/Niho00i7U6twxDaiVLK1xA/o.jpg,Country Cookin,2,3.0,22,38.2248258,-78.1217147,Orange
4741,"[{'alias': 'turkish', 'title': 'Turkish'}]",m7CIG06JpJdFNJaHb3uIjA,https://s3-media3.fl.yelpcdn.com/bphoto/_Vq8iOi_UcFRC1Z2A-f_2Q/o.jpg,Anatolian Bistro,2,4.5,156,38.9577773,-77.4000528,Herndon
3980,"[{'alias': 'italian', 'title': 'Italian'}, {'alias': 'pizza', 'title': 'Pizza'}]",nbdz7uI4WUv11AfSvUpWKg,https://s3-media3.fl.yelpcdn.com/bphoto/zpoL8zxwQfqYmkebg1DdjA/o.jpg,Ciro's Italian Pizzeria Restaurant,2,3.5,30,38.4829998761415,-77.9764462262392,Culpeper
4071,"[{'alias': 'japanese', 'title': 'Japanese'}, {'alias': 'sushi', 'title': 'Sushi Bars'}]",syb6viNeHxJ6ZP2z6Qctmw,https://s3-media4.fl.yelpcdn.com/bphoto/j4PO6jm0YG8opveSVDKoDQ/o.jpg,Tokyo Japanese Restaurant,2,3.5,46,38.5220108,-77.2925034,Quantico
2456,"[{'alias': 'burgers', 'title': 'Burgers'}, {'alias': 'sandwiches', 'title': 'Sandwiches'}]",Mv7KEuobm53uyAiAj-7TIw,https://s3-media4.fl.yelpcdn.com/bphoto/TpVJ3x8y7dZlmMnn5YoyGQ/o.jpg,What-a-burger,1,3.5,6,37.390562,-77.4270046,Richmond
1018,"[{'alias': 'italian', 'title': 'Italian'}, {'alias': 'cocktailbars', 'title': 'Cocktail Bars'}]",RLQpXAxDpjiWIEoJ9nqwOQ,https://s3-media2.fl.yelpcdn.com/bphoto/VT2w5PYdNwbY-qYA-BK5Ow/o.jpg,When In Rome,2,4.5,99,36.846581,-76.049072,Virginia Beach
3290,"[{'alias': 'italian', 'title': 'Italian'}, {'alias': 'pizza', 'title': 'Pizza'}]",vFrvgSzzVsnXGsebDDfdqA,https://s3-media3.fl.yelpcdn.com/bphoto/k5qKIUiKuwKebO28waAKjQ/o.jpg,Fabios NY Pizza - Charlottesville,1,4.0,33,38.03406,-78.46082,Charlottesville
4315,"[{'alias': 'modern_european', 'title': 'Modern European'}, {'alias': 'german', 'title': 'German'}]",90vBXKqGeDZCWzjo-mAHdA,https://s3-media3.fl.yelpcdn.com/bphoto/FNtJ96ElgtGSdbpal6RahA/o.jpg,Cosmopolitan Grill,2,4.0,251,38.74726,-77.08466,Alexandria
517,"[{'alias': 'tex-mex', 'title': 'Tex-Mex'}, {'alias': 'hotdogs', 'title': 'Fast Food'}, {'alias': 'mexican', 'title': 'Mexican'}]",Pvh7fgzrTjqk4pCrXpgWaw,https://s3-media4.fl.yelpcdn.com/bphoto/-4RtzfIqJDVr9wW2Q-1dAg/o.jpg,Taco Bell,1,1.5,10,36.7211358,-78.1186194,South Hill
1272,"[{'alias': 'seafood', 'title': 'Seafood'}, {'alias': 'thai', 'title': 'Thai'}, {'alias': 'tradamerican', 'title': 'American (Traditional)'}]",Mk4xUOyRC3pskJXxYW0YSA,https://s3-media2.fl.yelpcdn.com/bphoto/HzydnEWwS7XhjcmmYa561w/o.jpg,Catch N Release Seafood Bar and Grill,2,3.5,43,37.0626566289261,-76.4253234118223,Hampton
3209,"[{'alias': 'steak', 'title': 'Steakhouses'}, {'alias': 'beer_and_wine', 'title': 'Beer, Wine & Spirits'}]",RardwpQo2ggBqk1vD6UVJA,https://s3-media3.fl.yelpcdn.com/bphoto/_cZEWhsqCiS7En986BjOvg/o.jpg,Backdraft,2,3.0,14,38.0238113,-76.6124496,Kinsale
1992,"[{'alias': 'tradamerican', 'title': 'American (Traditional)'}, {'alias': 'salad', 'title': 'Salad'}, {'alias': 'seafood', 'title': 'Seafood'}]",Qp1uJche41YTbntdH_Rm4A,https://s3-media2.fl.yelpcdn.com/bphoto/rZ0VDGFA9xOH-hZR2mKTmw/o.jpg,Briar Patch Restaurant,2,4.0,52,37.564166,-79.062991,Amherst
4865,"[{'alias': 'tradamerican', 'title': 'American (Traditional)'}]",xZxfBj5-ip9Ie6Y-Y-EGwQ,https://s3-media3.fl.yelpcdn.com/bphoto/75x7hDFg31mKv-hIYsgyvQ/o.jpg,TGI Fridays,2,3.5,30,39.152539893503,-78.175544258464,Winchester
2478,"[{'alias': 'pizza', 'title': 'Pizza'}, {'alias': 'italian', 'title': 'Italian'}, {'alias': 'chicken_wings', 'title': 'Chicken Wings'}]",jOSU1c-K5Fif-y31MGtK5g,https://s3-media2.fl.yelpcdn.com/bphoto/20IM0yclSst7sH9K5DwWHA/o.jpg,Pizza Hut,2,2.5,12,37.371993811424,-76.7766804220908,Williamsburg
2224,"[{'alias': 'galleries', 'title': 'Art Galleries'}, {'alias': 'seafood', 'title': 'Seafood'}, {'alias': 'tradamerican', 'title': 'American (Traditional)'}]",s15WzoTvb7hmPV9qy43Osw,https://s3-media2.fl.yelpcdn.com/bphoto/JsLmSLr1Xt_ushZz36SfNw/o.jpg,Bizzotto's Gallery-Caffe,3,3.5,18,37.7122699,-75.74965,Onancock
4613,"[{'alias': 'bbq', 'title': 'Barbeque'}]",oqv7Y7UhTMAZjwK78k7X3A,https://s3-media3.fl.yelpcdn.com/bphoto/3BozGRxrYI0oIolkl08o5A/o.jpg,Shaffer's BBQ & Market,1,4.5,50,39.02187,-78.288708,Middletown
3513,"[{'alias': 'icecream', 'title': 'Ice Cream & Frozen Yogurt'}, {'alias': 'hotdogs', 'title': 'Fast Food'}]",G5YOHIsZ2haco70-q0UozA,https://s3-media2.fl.yelpcdn.com/bphoto/7wDlU2sN-J39xDSXX3rGLg/o.jpg,Tastee Freez,1,3.0,17,38.1408532708883,-78.1888201832771,Gordonsville
2228,"[{'alias': 'pizza', 'title': 'Pizza'}, {'alias': 'italian', 'title': 'Italian'}, {'alias': 'sandwiches', 'title': 'Sandwiches'}]",pg4LvVMwY3DT2dxxih9zNA,https://s3-media1.fl.yelpcdn.com/bphoto/wMKNLC_NVCGu705p5OxaHA/o.jpg,Roma Pizzeria,1,4.0,8,37.820375,-75.586501,Bloxom
3145,"[{'alias': 'pizza', 'title': 'Pizza'}, {'alias': 'italian', 'title': 'Italian'}]",3LEJCi3pDIu3d0o8FMSQJw,https://s3-media2.fl.yelpcdn.com/bphoto/p9d7nctPpfH_rmxVRZ3ojA/o.jpg,Roma Italian Restaurant,2,3.5,25,38.0193272659843,-77.9948282773979,Louisa
759,"[{'alias': 'cafes', 'title': 'Cafes'}, {'alias': 'sandwiches', 'title': 'Sandwiches'}, {'alias': 'salad', 'title': 'Salad'}]",Ujh47sRvd7_vumWK39FRSw,https://s3-media3.fl.yelpcdn.com/bphoto/6ZVq4nyBQM9IlSDs8hL58g/o.jpg,Restore Community Coffee,2,4.5,2,36.906781,-82.079866,Lebanon
2810,"[{'alias': 'newamerican', 'title': 'American (New)'}, {'alias': 'french', 'title': 'French'}, {'alias': 'diners', 'title': 'Diners'}]",Vw4fs2fc1mGLKQEr5I1y9g,https://s3-media4.fl.yelpcdn.com/bphoto/n1SZidwgS1tvWS6FPs7prA/o.jpg,Les Cochons d'Or,3,4.5,91,38.0000959,-79.832235,Hot Springs
3447,"[{'alias': 'chinese', 'title': 'Chinese'}, {'alias': 'sushi', 'title': 'Sushi Bars'}, {'alias': 'buffets', 'title': 'Buffets'}]",LGS2Oj0zlM48A61O1OoogQ,https://s3-media2.fl.yelpcdn.com/bphoto/otxRJzq1oX5bc2ye0p-aGQ/o.jpg,New Ming Garden Buffet and Grill,2,3.0,42,38.06734,-78.8882,Waynesboro
214,"[{'alias': 'bars', 'title': 'Bars'}, {'alias': 'sandwiches', 'title': 'Sandwiches'}]",Ubn-IklUW7gRa294ZHBu8g,https://s3-media2.fl.yelpcdn.com/bphoto/gtezyRBdBIk7smFhGyOZCg/o.jpg,Darby's Tavern,2,3.5,18,36.698744,-78.943781,South Boston
1175,"[{'alias': 'wine_bars', 'title': 'Wine Bars'}, {'alias': 'italian', 'title': 'Italian'}, {'alias': 'breakfast_brunch', 'title': 'Breakfast & Brunch'}]",kBonh6YLqWKu-xXv08U-EA,https://s3-media3.fl.yelpcdn.com/bphoto/GJo8u00tZkAotHL_1wVVyQ/o.jpg,Charley's Waterfront Cafe,2,3.5,124,37.3041571016467,-78.3921714687296,Farmville
2222,"[{'alias': 'seafood', 'title': 'Seafood'}]",zBBD07FhpXM73JfwD0tdSg,https://s3-media3.fl.yelpcdn.com/bphoto/kbPDRHIyfXqJxRgsz0aSSg/o.jpg,Etta's Channel Side Restaurant,2,3.5,88,37.9173749685287,-75.3767573833466,Chincoteague
2344,"[{'alias': 'convenience', 'title': 'Convenience Stores'}, {'alias': 'hotdog', 'title': 'Hot Dogs'}]",G56l_3YZEahEcyv9HyV7uQ,https://s3-media4.fl.yelpcdn.com/bphoto/_HMTpcl3KY5oogv67IIqHg/o.jpg,Moore's Country Store,1,3.5,16,37.38553,-79.0651,Lynchburg
4989,"[{'alias': 'salvadoran', 'title': 'Salvadoran'}, {'alias': 'empanadas', 'title': 'Empanadas'}, {'alias': 'tacos', 'title': 'Tacos'}]",uWscgvW-Yntygui8fhZxKQ,https://s3-media1.fl.yelpcdn.com/bphoto/9I5utzHO-EgVmRFzHQ819A/o.jpg,La Estación Restaurante,1,5.0,16,39.10812,-77.55261,Leesburg
196,"[{'alias': 'chinese', 'title': 'Chinese'}]",CQgkQf-EHhI_0DlWSEgtzQ,https://s3-media4.fl.yelpcdn.com/bphoto/KQC4jZgyqPRJDsdCwnQ1yg/o.jpg,Great Wall Restaurant,1,3.5,7,36.58157,-79.33675,Danville
3169,"[{'alias': 'sandwiches', 'title': 'Sandwiches'}, {'alias': 'hotdogs', 'title': 'Fast Food'}, {'alias': 'delis', 'title': 'Delis'}]",0yMnVxlu_o_MA_ZWj4FFxw,https://s3-media3.fl.yelpcdn.com/bphoto/ITPrr0A38HTz_aJOq6dj3g/o.jpg,Jersey Mike's Subs,1,3.5,13,37.75886,-77.46843,Ashland
3540,"[{'alias': 'delis', 'title': 'Delis'}, {'alias': 'italian', 'title': 'Italian'}]",B3z2vsoTaMWi1QtZYaapyg,https://s3-media2.fl.yelpcdn.com/bphoto/JblqH89UA_zSKVGU6DyGUQ/o.jpg,Basilico,2,4.5,405,38.3080565268944,-77.4906174822919,Fredericksburg
1323,"[{'alias': 'bars', 'title': 'Bars'}, {'alias': 'seafood', 'title': 'Seafood'}]",lS56hpClgN_ULNASDXTFgw,https://s3-media4.fl.yelpcdn.com/bphoto/soh5TjyGr5jUJVG1yruAMA/o.jpg,The Thirsty Camel,2,3.5,61,36.95976,-76.26048,Norfolk
1056,"[{'alias': 'newamerican', 'title': 'American (New)'}, {'alias': 'seafood', 'title': 'Seafood'}]",WQ7QN9qwmx1PIjV-brpvDg,https://s3-media2.fl.yelpcdn.com/bphoto/lj4L5DycTyw2qNbsoIcLhw/o.jpg,Yuk Yuk & Joe's,2,4.0,15,37.3641471862793,-75.9382629394531,Eastville
887,"[{'alias': 'bbq', 'title': 'Barbeque'}, {'alias': 'diners', 'title': 'Diners'}]",q4gH4HBgT_gfUQJ2b3xbaQ,https://s3-media1.fl.yelpcdn.com/bphoto/DRTaGJkrY_Q1ZW1PV9NH4g/o.jpg,Jeb's Diner,1,4.0,50,36.9215965270996,-76.5157470703125,Carrollton
2480,"[{'alias': 'pizza', 'title': 'Pizza'}, {'alias': 'italian', 'title': 'Italian'}]",TX4K6a-NCoelhpjiUaPy9A,https://s3-media1.fl.yelpcdn.com/bphoto/tcAoNjx615FOHaHb_g8p_g/o.jpg,Jimmy's Oven & Grill,2,4.0,45,37.3617307303654,-76.7663603701648,Williamsburg
2610,"[{'alias': 'hotdogs', 'title': 'Fast Food'}]",6Nc1NKWAF7nrVB_ZtRaWZQ,https://s3-media1.fl.yelpcdn.com/bphoto/lKg5m6dV7c2NvCR0cZHEcg/o.jpg,Bojangles' Famous Chicken 'n Biscuits,1,2.0,7,37.5104033873329,-77.7719674005249,Powhatan
568,"[{'alias': 'seafood', 'title': 'Seafood'}, {'alias': 'chicken_wings', 'title': 'Chicken Wings'}]",D3pSPyBt3tYM3zmkLSREQA,https://s3-media4.fl.yelpcdn.com/bphoto/T9WGiZTbJ93Tc2E2EMHHXQ/o.jpg,Feather-N-Fin Chicken & Seafood,1,2.5,3,36.7244338989258,-76.5719528198242,Suffolk
3282,"[{'alias': 'burgers', 'title': 'Burgers'}, {'alias': 'sandwiches', 'title': 'Sandwiches'}, {'alias': 'hotdog', 'title': 'Hot Dogs'}]",mbw80OddJoPUUcvgS1yhvQ,https://s3-media1.fl.yelpcdn.com/bphoto/ba3vzRom9t8ng_5rnUiybg/o.jpg,Riverside Lunch,1,4.5,139,38.0330924987793,-78.4625854492188,Charlottesville
3377,"[{'alias': 'cafes', 'title': 'Cafes'}, {'alias': 'beergardens', 'title': 'Beer Gardens'}]",92VcU6iqFSiBkzGm2G10EQ,https://s3-media1.fl.yelpcdn.com/bphoto/t7JeJx7_GJxAqgIZkcgrag/o.jpg,The By & By Cafe and Beer Garden,1,4.0,36,38.1494913,-79.0710881,Staunton
139,"[{'alias': 'southern', 'title': 'Southern'}, {'alias': 'diners', 'title': 'Diners'}]",S4va16aJqBzK1fuzCRcGrQ,,Garfield's Place,1,4.5,7,36.6915130615234,-79.9142227172852,Martinsville
2077,"[{'alias': 'mexican', 'title': 'Mexican'}]",h6ciWQF01_Ds3oolwdGt7A,https://s3-media2.fl.yelpcdn.com/bphoto/BTvGn84-siFmdgCh1tfSOQ/o.jpg,Jalapeños,2,4.0,75,37.3478195,-77.3428634,Chester
2602,"[{'alias': 'tradamerican', 'title': 'American (Traditional)'}, {'alias': 'breakfast_brunch', 'title': 'Breakfast & Brunch'}, {'alias': 'diners', 'title': 'Diners'}]",II40VmI1H3iZcsWhERSFLQ,https://s3-media2.fl.yelpcdn.com/bphoto/RtnMcJHQXMEJM9g2C-rkbg/o.jpg,Frisby's Restaurant,1,3.0,8,37.5161056518555,-77.7936706542969,Powhatan
4711,"[{'alias': 'japanese', 'title': 'Japanese'}, {'alias': 'sushi', 'title': 'Sushi Bars'}, {'alias': 'steak', 'title': 'Steakhouses'}]",AsiedF2eMUddgCtZxXZ8YA,https://s3-media1.fl.yelpcdn.com/bphoto/C2SlXPpYyw6qTc3OxUFoGA/o.jpg,Sakura Grill Ashburn,2,4.5,161,39.01006,-77.492006,Ashburn
463,"[{'alias': 'sandwiches', 'title': 'Sandwiches'}]",6oMQ6adtLf23lVhNa7Qb6Q,,Famous Subs & More,2,3.5,7,36.705989,-79.877118,Martinsville
2450,"[{'alias': 'sandwiches', 'title': 'Sandwiches'}, {'alias': 'musicvenues', 'title': 'Music Venues'}]",QHqOmy1Deoh-eAPkUvIDLA,https://s3-media3.fl.yelpcdn.com/bphoto/0LyJB9Rv46-ou4fVA7Jb3Q/o.jpg,Lilly Pad,2,3.0,13,37.40026,-77.38356,Henrico
594,"[{'alias': 'tradamerican', 'title': 'American (Traditional)'}, {'alias': 'bars', 'title': 'Bars'}]",LhU3cke19ZATH7QQ4FzFWg,https://s3-media2.fl.yelpcdn.com/bphoto/gzSyt2pjTcmtxR2LNqks0g/o.jpg,Winston's Raw Bar & Grill,2,4.0,24,36.72817,-76.29965,Chesapeake
2280,"[{'alias': 'japanese', 'title': 'Japanese'}]",PdzFV2Wjceev2rqNQwgx9Q,https://s3-media1.fl.yelpcdn.com/bphoto/ldy8pfE30FLsg0fb7FkJIg/o.jpg,Kabuto Hibachi Express,2,4.0,11,37.3685172723761,-79.3000867856247,Forest
450,"[{'alias': 'newamerican', 'title': 'American (New)'}]",NtexYHJXzBJM8_07AOA1UA,https://s3-media3.fl.yelpcdn.com/bphoto/zNe17z7ljrE8kNNkOioQ-A/o.jpg,Mackies Restaurant,1,2.5,2,36.7325626253171,-79.9594932049513,Bassett
1630,"[{'alias': 'mexican', 'title': 'Mexican'}]",iuVADUHtdc2QAJfT-pdbgg,https://s3-media2.fl.yelpcdn.com/bphoto/Qk33jbcY8EPMFciIvKmQ6g/o.jpg,Mexico Lindo,1,4.0,25,37.1484769015501,-76.5516790740741,Newport News
2388,"[{'alias': 'thai', 'title': 'Thai'}]",9hhqgLgNCNbeG7AY-uP2iA,https://s3-media2.fl.yelpcdn.com/bphoto/w2XetzVfy5gj93v0XRl5Gg/o.jpg,iThaiz Restaurant,2,4.5,158,37.4741797716539,-77.5977264023247,Richmond
3423,"[{'alias': 'asianfusion', 'title': 'Asian Fusion'}, {'alias': 'chinese', 'title': 'Chinese'}, {'alias': 'bars', 'title': 'Bars'}]",e-whZ7WE6pNpthjscdyOWA,https://s3-media3.fl.yelpcdn.com/bphoto/cWaKaOq_v6iQ756zWkz6vw/o.jpg,Silk Road,2,4.0,96,38.06244,-78.9365399,Waynesboro
4988,"[{'alias': 'sushi', 'title': 'Sushi Bars'}, {'alias': 'japanese', 'title': 'Japanese'}]",52O4MlTu2n19hBj_-xIuaA,https://s3-media2.fl.yelpcdn.com/bphoto/N3_yjNfIOggDR5tiSb5lGQ/o.jpg,Noku,2,4.0,317,39.0885,-77.52337,Leesburg
1864,"[{'alias': 'pizza', 'title': 'Pizza'}]",6q6NL5xstgJd2pN2Zuitog,https://s3-media3.fl.yelpcdn.com/bphoto/u8ZAKqaqBlwCrD7ppd8QNw/o.jpg,All Day Pizza Cafe,2,4.5,23,37.25012,-80.03917,Cave Spring
1427,"[{'alias': 'hotdogs', 'title': 'Fast Food'}, {'alias': 'mexican', 'title': 'Mexican'}, {'alias': 'tex-mex', 'title': 'Tex-Mex'}]",SsUm2wMcO8y5MZ5BjijCfA,https://s3-media1.fl.yelpcdn.com/bphoto/DmrxvR7UL_dRppJeMslXOA/o.jpg,Taco Bell,1,2.0,5,37.086309,-80.649854,Dublin
1541,"[{'alias': 'newamerican', 'title': 'American (New)'}, {'alias': 'seafood', 'title': 'Seafood'}]",fCA1gV156mY2Ismn4iPqcQ,https://s3-media4.fl.yelpcdn.com/bphoto/MeXIay7TtXDkCHRMT-Ed9w/o.jpg,The Water Dog,2,4.0,102,37.4144999,-79.13904,Lynchburg
451,"[{'alias': 'diners', 'title': 'Diners'}]",z49BFaQLe8klW4Al2felZw,https://s3-media2.fl.yelpcdn.com/bphoto/Q1wbLL3B1d7MTfB0LZPBPw/o.jpg,Fenderz Drive In,1,3.5,11,36.7285664208807,-79.9191678267014,Collinsville
3263,"[{'alias': 'breakfast_brunch', 'title': 'Breakfast & Brunch'}, {'alias': 'burgers', 'title': 'Burgers'}]",k52JJWc3UFO2bbbJypNLhA,https://s3-media4.fl.yelpcdn.com/bphoto/uA2UJyOyQ7VfTbMnyH2peg/o.jpg,Moose's by the Creek,1,4.5,198,38.0137281,-78.473709,Charlottesville
3403,"[{'alias': 'pizza', 'title': 'Pizza'}]",8XNXqqvouMqRzsoE-qm-gQ,https://s3-media3.fl.yelpcdn.com/bphoto/yhK14USiaDkxThtgKT_h2g/o.jpg,Papa John's Pizza,2,2.0,5,38.1372451782227,-79.0685729980469,Staunton
2117,"[{'alias': 'italian', 'title': 'Italian'}, {'alias': 'pizza', 'title': 'Pizza'}]",YVXVcZJx_fG7pwWGP0RNpw,https://s3-media2.fl.yelpcdn.com/bphoto/F8U0aKgSVyx2cHiQ9l66TQ/o.jpg,Sal's by Victor,2,4.0,513,37.2812129,-76.7191279,Williamsburg
4795,"[{'alias': 'italian', 'title': 'Italian'}]",moG6kqJ-NOMhovGyQ6XmeA,https://s3-media2.fl.yelpcdn.com/bphoto/acp4_6iDTqYi30COMzCVxA/o.jpg,Dante Ristorante,3,4.0,83,38.97397,-77.29665,Great Falls
999,"[{'alias': 'southern', 'title': 'Southern'}, {'alias': 'breakfast_brunch', 'title': 'Breakfast & Brunch'}, {'alias': 'newamerican', 'title': 'American (New)'}]",io57fDJ64kJbMC50GQjACQ,https://s3-media3.fl.yelpcdn.com/bphoto/gr5vacJne5Sa8plSNzPyGg/o.jpg,Tupelo Honey,2,4.0,745,36.8420451,-76.1313633,Virginia Beach
1550,"[{'alias': 'italian', 'title': 'Italian'}, {'alias': 'pizza', 'title': 'Pizza'}]",Wm0KBzcKVBmrqEoXVmcR_Q,https://s3-media2.fl.yelpcdn.com/bphoto/NjZvUE4I1f9krmuOg7hbNg/o.jpg,Pino's Pizza & Italian Restaurant,1,3.5,22,37.2946986689773,-78.3951289524281,Farmville
2092,"[{'alias': 'italian', 'title': 'Italian'}, {'alias': 'pizza', 'title': 'Pizza'}]",OyKgIuIpng9gfa-w1wGADw,https://s3-media2.fl.yelpcdn.com/bphoto/gZg6Ikb38xdFXCcvRiZjLg/o.jpg,Roma Ristorante Italiano,2,4.0,62,37.212591022253,-77.3569732904434,Petersburg
192,"[{'alias': 'hotdogs', 'title': 'Fast Food'}]",wfcmYs7adMz3giPtseLisg,https://s3-media3.fl.yelpcdn.com/bphoto/V-hnf4C6oILOa42Ul9Grfg/o.jpg,Chick-fil-A,1,5.0,4,36.58206232,-79.42891494,Danville
3944,"[{'alias': 'diners', 'title': 'Diners'}]",DL8ur2WLvreGQD8V7CL5XA,https://s3-media2.fl.yelpcdn.com/bphoto/0IGk8gonrRV1nITO4jm1Cg/o.jpg,L & S Diner,1,4.5,21,38.4522514,-78.8700027,Harrisonburg
4283,"[{'alias': 'sushi', 'title': 'Sushi Bars'}, {'alias': 'japanese', 'title': 'Japanese'}, {'alias': 'steak', 'title': 'Steakhouses'}]",39JeJL7wTQEbQvUuKzv-nw,https://s3-media3.fl.yelpcdn.com/bphoto/pg73X88oGWH3ikdkJxpuiA/o.jpg,Sushi Bae,2,3.5,110,38.6838053848441,-77.3189063180029,Woodbridge
3371,"[{'alias': 'thai', 'title': 'Thai'}]",M6UcGzx1jw67x0L4_IUnBQ,https://s3-media3.fl.yelpcdn.com/bphoto/VIv35XxR6eiP1mM5VOB6Cg/o.jpg,Thai Staunton Restaurant,2,4.5,122,38.1326714,-79.0639114,Staunton
4334,"[{'alias': 'bbq', 'title': 'Barbeque'}, {'alias': 'tradamerican', 'title': 'American (Traditional)'}, {'alias': 'southern', 'title': 'Southern'}]",szBvLwgRj9QeQi9258ImDw,https://s3-media4.fl.yelpcdn.com/bphoto/G9N4rKBSeEAbmxjrSXhNDg/o.jpg,Dickey's Barbecue Pit,2,3.0,94,38.7421809702557,-77.1622831717008,Alexandria
4532,"[{'alias': 'tacos', 'title': 'Tacos'}]",NRagjbNgImkw952His-QeA,https://s3-media4.fl.yelpcdn.com/bphoto/sVuB-_Fuv_7mHiBC6ZwIPQ/o.jpg,Bartaco Mosaic,2,4.0,331,38.871345,-77.23046,Fairfax
2123,"[{'alias': 'ramen', 'title': 'Ramen'}]",arfhQxEiShTUt5xDco2hUA,https://s3-media4.fl.yelpcdn.com/bphoto/VYvWzhYEZJiMvh2grYfQ1g/o.jpg,Hayashi Ramen and Hibachi,2,4.0,47,37.2755679,-76.746614,Williamsburg
2688,"[{'alias': 'southern', 'title': 'Southern'}]",QIBFFsLPVA98FPBrbTmpdg,https://s3-media1.fl.yelpcdn.com/bphoto/W70FqZloqq8nod6nf3ACAg/o.jpg,Pasture,2,4.0,455,37.542483,-77.4384,Richmond
2329,"[{'alias': 'pizza', 'title': 'Pizza'}]",kgq67kCXW7zRwQOYP0uxGw,https://s3-media2.fl.yelpcdn.com/bphoto/uBhjz7FYtRc42_Ggcp42fA/o.jpg,Benny Scarpetta's,1,4.0,42,37.413368412114,-79.1413879394531,Lynchburg
2700,"[{'alias': 'french', 'title': 'French'}, {'alias': 'southern', 'title': 'Southern'}]",7Yli_3vbagGgNqnV-qsD-g,https://s3-media1.fl.yelpcdn.com/bphoto/mdjh7RhyoL6oFi6F9qzk0g/o.jpg,L'Opossum,3,4.5,216,37.53803,-77.45032,Richmond
3654,"[{'alias': 'mexican', 'title': 'Mexican'}, {'alias': 'salad', 'title': 'Salad'}, {'alias': 'seafood', 'title': 'Seafood'}]",m03N3f4OoTycKKWJESZEIQ,https://s3-media2.fl.yelpcdn.com/bphoto/DqeJQriDfiSO3ptvnvM6xQ/o.jpg,El Pino Mexican Restaurant,1,4.5,169,38.28954,-77.53326,Fredericksburg
4296,"[{'alias': 'filipino', 'title': 'Filipino'}, {'alias': 'latin', 'title': 'Latin American'}, {'alias': 'newamerican', 'title': 'American (New)'}]",i01oTUNJeudzDOuC06mv1w,https://s3-media1.fl.yelpcdn.com/bphoto/h4oY_TMMVcIY-Qcu4M3IEA/o.jpg,The Corner Q,2,4.5,135,38.7051682,-77.2273814,Lorton
4739,"[{'alias': 'thai', 'title': 'Thai'}]",FFP6efzWZmYWy3FvdRKMhQ,https://s3-media4.fl.yelpcdn.com/bphoto/Jd8-RvBvmo7yQV9IqlVNsQ/o.jpg,Nunu's Thai Dishes,2,4.5,116,38.9679238,-77.3752713,Herndon
3768,"[{'alias': 'salad', 'title': 'Salad'}, {'alias': 'cafes', 'title': 'Cafes'}, {'alias': 'sandwiches', 'title': 'Sandwiches'}]",0c7N9k2mPmuQJln3T1gH2w,https://s3-media1.fl.yelpcdn.com/bphoto/n85qYgIaXV3zDoRjIZRabg/o.jpg,Greens & Grains Cafe,1,4.0,37,38.42284,-78.87403,Harrisonburg
3130,"[{'alias': 'tradamerican', 'title': 'American (Traditional)'}, {'alias': 'newamerican', 'title': 'American (New)'}, {'alias': 'breakfast_brunch', 'title': 'Breakfast & Brunch'}]",D2czVyELyhTaa0NrTR1OJQ,https://s3-media4.fl.yelpcdn.com/bphoto/h_Y9-Q59jnMeHiyuxOfbhA/o.jpg,Restoration at Old Trail,2,3.5,39,38.0582670376594,-78.7192162070214,Crozet
1837,"[{'alias': 'hotdogs', 'title': 'Fast Food'}, {'alias': 'burgers', 'title': 'Burgers'}, {'alias': 'coffee', 'title': 'Coffee & Tea'}]",TN-BdqLAu5zwYo0RKWchkg,https://s3-media1.fl.yelpcdn.com/bphoto/rXPnsYiwwH7W0-FpBzjF8Q/o.jpg,McDonald's,1,2.5,11,37.2904164651446,-80.0763838738203,Salem
3231,"[{'alias': 'pizza', 'title': 'Pizza'}, {'alias': 'pastashops', 'title': 'Pasta Shops'}, {'alias': 'sandwiches', 'title': 'Sandwiches'}]",xvIDhBGrMBsTcU-kcdS_Gw,https://s3-media2.fl.yelpcdn.com/bphoto/Qqtzz6TtJK4-HgdwNZzkTg/o.jpg,Scottos Trattoria,2,3.5,11,38.0346,-79.03362,Stuarts Draft
2642,"[{'alias': 'seafood', 'title': 'Seafood'}, {'alias': 'steak', 'title': 'Steakhouses'}, {'alias': 'bars', 'title': 'Bars'}]",6P9uSnrP0l97jT67D021JA,https://s3-media4.fl.yelpcdn.com/bphoto/1svH-uMfJ8Yd7gajveQPPQ/o.jpg,The Hard Shell Bellgrade,3,3.5,99,37.5247397356868,-77.6104432062268,Midlothian
5034,"[{'alias': 'thai', 'title': 'Thai'}]",0pEOZqAk1fLtSAIz_F98ZQ,https://s3-media4.fl.yelpcdn.com/bphoto/Np4YwA5MEnxwDmHJl1XkXQ/o.jpg,Pasara Thai,2,4.0,62,39.0612082,-77.47026,Ashburn
191,"[{'alias': 'hotdogs', 'title': 'Fast Food'}, {'alias': 'mexican', 'title': 'Mexican'}, {'alias': 'tex-mex', 'title': 'Tex-Mex'}]",IrjMNdsSIOLF9aeE9ovueA,https://s3-media4.fl.yelpcdn.com/bphoto/kOH060VnQl2Oqioo8VdBjw/o.jpg,Taco Bell,1,4.5,2,36.587839,-79.421646,Danville
1593,"[{'alias': 'hotdogs', 'title': 'Fast Food'}, {'alias': 'burgers', 'title': 'Burgers'}, {'alias': 'coffee', 'title': 'Coffee & Tea'}]",1LYuxuo8F5Ncxdh3omiuUQ,https://s3-media2.fl.yelpcdn.com/bphoto/1_JAtzhZrZCBNELnVb011A/o.jpg,McDonald's,1,2.0,4,37.20273,-77.3795,Petersburg
3881,"[{'alias': 'breakfast_brunch', 'title': 'Breakfast & Brunch'}, {'alias': 'tradamerican', 'title': 'American (Traditional)'}]",8DDyT4v0yyoU_nis1OJj8g,https://s3-media1.fl.yelpcdn.com/bphoto/5UtQYdZ-KMPA_U4NIIJ_OA/o.jpg,Mason-Dixon Cafe Stafford,2,4.5,166,38.42598,-77.40697,Stafford
2316,"[{'alias': 'southern', 'title': 'Southern'}, {'alias': 'bbq', 'title': 'Barbeque'}, {'alias': 'whiskeybars', 'title': 'Whiskey Bars'}]",KOLaF4H_ZJqdKtCeh4BM-Q,https://s3-media1.fl.yelpcdn.com/bphoto/FHjlCrFEhz9PIM5wjnc-hw/o.jpg,Fifth & Federal Station,2,3.5,75,37.41511,-79.15118,Lynchburg
4773,"[{'alias': 'tradamerican', 'title': 'American (Traditional)'}, {'alias': 'bars', 'title': 'Bars'}, {'alias': 'venues', 'title': 'Venues & Event Spaces'}]",UVrAjtodk6tx6kCP5KejQQ,https://s3-media4.fl.yelpcdn.com/bphoto/rJQUUgfCQmvIc3L1J9kpIA/o.jpg,Clyde's of Reston,2,3.0,451,38.9585651,-77.356858,Reston
4716,"[{'alias': 'thai', 'title': 'Thai'}, {'alias': 'cocktailbars', 'title': 'Cocktail Bars'}, {'alias': 'desserts', 'title': 'Desserts'}]",EPOxwqMOYY7h85G0VALnrw,https://s3-media1.fl.yelpcdn.com/bphoto/AqMulRkV4cSHFMPSBo94yQ/o.jpg,My Thai Place - Ashburn,2,3.5,210,38.9861543411302,-77.5371665250433,Ashburn
2170,"[{'alias': 'italian', 'title': 'Italian'}, {'alias': 'pizza', 'title': 'Pizza'}]",leUkQnIFjEjDNYk0RyM0mg,https://s3-media3.fl.yelpcdn.com/bphoto/IwflUsAKLscYS0lq3k5a_A/o.jpg,Tony & Milena's Pizzeria,2,4.5,79,37.2744457,-76.49994,Hayes
2922,"[{'alias': 'japanese', 'title': 'Japanese'}]",lbL9I5ZeU_JIzSJ_U43w_g,https://s3-media3.fl.yelpcdn.com/bphoto/mAm4akXTeqZy2rN_T7Clzw/o.jpg,Kanpai,2,3.5,78,37.65717,-77.62734,Richmond
1741,"[{'alias': 'seafood', 'title': 'Seafood'}, {'alias': 'tradamerican', 'title': 'American (Traditional)'}, {'alias': 'beerbar', 'title': 'Beer Bar'}]",Ag88HKQNJxK3ahOkAZiMxg,https://s3-media3.fl.yelpcdn.com/bphoto/tK9GOPNWWOX8KPbK0D5P7w/o.jpg,Island House Restaurant & Marina,2,4.5,114,37.6034218453292,-75.6884883890411,Wachapreague
1937,"[{'alias': 'sportsbars', 'title': 'Sports Bars'}, {'alias': 'burgers', 'title': 'Burgers'}, {'alias': 'tradamerican', 'title': 'American (Traditional)'}]",RvfCdt9z1wdn6DX5JD6JdA,https://s3-media2.fl.yelpcdn.com/bphoto/CaT1YdlbT-udoufK3DcfmA/o.jpg,Applebee's Grill + Bar,2,3.0,6,37.32267,-79.496192,Bedford
3842,"[{'alias': 'chinese', 'title': 'Chinese'}]",PcLzWJzrzH_MfchK5iulyQ,https://s3-media3.fl.yelpcdn.com/bphoto/j9NoyAYnLkUkrejp85Ym1g/o.jpg,Top's China,1,2.5,21,38.3465075653569,-77.7464338,Locust Grove
3318,"[{'alias': 'newamerican', 'title': 'American (New)'}]",f83IrEVmC5M5Fvz5ZWfdTA,https://s3-media2.fl.yelpcdn.com/bphoto/er3gW_uolbAMtANykxEWhg/o.jpg,Forked on Main,2,4.5,27,38.24461,-78.11235,Orange
4959,"[{'alias': 'latin', 'title': 'Latin American'}]",PFLCprMBVKAZnBmVYEbGRQ,https://s3-media2.fl.yelpcdn.com/bphoto/i6ASEBmOa_h_CtB4NVWcmQ/o.jpg,Wishbone Rotisserie,1,4.0,43,39.1073966771364,-77.5672242790461,Leesburg
312,"[{'alias': 'newamerican', 'title': 'American (New)'}, {'alias': 'burgers', 'title': 'Burgers'}, {'alias': 'diners', 'title': 'Diners'}]",86Ne8-tsLVP-RJW-sVbVhg,https://s3-media1.fl.yelpcdn.com/bphoto/kmWl4z83Pn4yzdgnvLFNMg/o.jpg,Gourmet Burger Bistro,1,4.5,276,36.8611484,-76.3988386,Portsmouth
1786,"[{'alias': 'bbq', 'title': 'Barbeque'}, {'alias': 'cajun', 'title': 'Cajun/Creole'}]",XPuNIsqNwYCF2x6FL5BfLw,https://s3-media1.fl.yelpcdn.com/bphoto/HfTdHaxEyRIVk0Wu-oWW7w/o.jpg,Bottom of the Stairs,1,4.0,14,37.2297066581898,-80.4163800179958,Blacksburg
166,"[{'alias': 'chinese', 'title': 'Chinese'}]",or0vVAeuVmdwp-g8zCqvPA,https://s3-media1.fl.yelpcdn.com/bphoto/FYRJJvRRhOiJxa4RQTnnXg/o.jpg,Long River Restaurant,2,4.0,18,36.58974,-79.41844,Danville
2459,"[{'alias': 'soulfood', 'title': 'Soul Food'}]",y0e2DWNAgtQrHbJ_ocD3gw,https://s3-media2.fl.yelpcdn.com/bphoto/YjMs8EDhe3CkOtfL0FepUw/o.jpg,Grandma's Soul Food,1,3.5,12,37.4677849,-77.4669495,Richmond
5088,"[{'alias': 'caribbean', 'title': 'Caribbean'}]",7pnXauS0s0d4KDVjifRAnA,https://s3-media2.fl.yelpcdn.com/bphoto/R8LkblDwNMevyV-7Roz04g/o.jpg,Island Delights Caribbean Restaurant,2,4.0,14,39.19921,-78.15728,Winchester
1024,"[{'alias': 'italian', 'title': 'Italian'}, {'alias': 'pizza', 'title': 'Pizza'}]",cQAixEoHpTKoE40f2CPPgQ,https://s3-media1.fl.yelpcdn.com/bphoto/Aqth-2hy1G7CSNzRDRzBOQ/o.jpg,Nona's Italian Kitchen,1,5.0,40,36.80496,-76.0799399,Virginia Beach
4523,"[{'alias': 'caribbean', 'title': 'Caribbean'}]",sKD-RsQrbtuG3r3PCsXY_w,https://s3-media3.fl.yelpcdn.com/bphoto/01jbP5caeLzusMPiEDLmCQ/o.jpg,Caribbean Plate,2,4.0,377,38.8798426451602,-77.1728496229855,Falls Church
4172,"[{'alias': 'burgers', 'title': 'Burgers'}, {'alias': 'hotdogs', 'title': 'Fast Food'}]",yC4lmx_7MFCGAJlMPaK8JQ,https://s3-media2.fl.yelpcdn.com/bphoto/FvBoh06XJnXPMgzPSCvDgg/o.jpg,Five Guys,1,3.5,20,38.7332509,-77.7714719,Warrenton
2318,"[{'alias': 'vegetarian', 'title': 'Vegetarian'}, {'alias': 'burgers', 'title': 'Burgers'}, {'alias': 'vegan', 'title': 'Vegan'}]",xVbkph6S5iJtSf6ugxmUcg,https://s3-media3.fl.yelpcdn.com/bphoto/Knd16NlgXvuYXU8ZcDGBQQ/o.jpg,Urbavore,2,4.5,40,37.41239,-79.14183,Lynchburg
4690,"[{'alias': 'newamerican', 'title': 'American (New)'}, {'alias': 'cocktailbars', 'title': 'Cocktail Bars'}, {'alias': 'wine_bars', 'title': 'Wine Bars'}]",is9FK97eHywDL-eDi3W7ZQ,https://s3-media2.fl.yelpcdn.com/bphoto/__o0wGtenR_AHI-l7s6tgw/o.jpg,AhSo Restaurant,3,4.0,84,38.98508,-77.5368,Brambleton
5095,"[{'alias': 'salad', 'title': 'Salad'}, {'alias': 'peruvian', 'title': 'Peruvian'}, {'alias': 'sandwiches', 'title': 'Sandwiches'}]",JgwiejZrcucBrTHQntETEg,https://s3-media1.fl.yelpcdn.com/bphoto/7ITKt_KIpznAYtnhQ8WshQ/o.jpg,Aroma Deli,1,4.5,80,39.18307,-78.16265,Winchester
1966,"[{'alias': 'mexican', 'title': 'Mexican'}]",5lizFQcGrd0-FOzUDXcizQ,https://s3-media2.fl.yelpcdn.com/bphoto/HkiT8JUtUapB-ggfMcidFA/o.jpg,Mi Patron Mexican Restaurant,1,4.0,20,37.3181304931641,-79.1872100830078,Lynchburg
4471,"[{'alias': 'caribbean', 'title': 'Caribbean'}]",TwvBS6dGxLd2EE8CDgOmsQ,https://s3-media2.fl.yelpcdn.com/bphoto/M8xUgKXvHppdJ4xWZYKGXg/o.jpg,Malakhi Lounge & Jamaican Restaurant,2,3.5,40,38.7618119264105,-77.4621903151274,Manassas
4501,"[{'alias': 'thai', 'title': 'Thai'}, {'alias': 'noodles', 'title': 'Noodles'}, {'alias': 'soup', 'title': 'Soup'}]",ZTvNMFWvVvEUItPmMKEXxg,https://s3-media2.fl.yelpcdn.com/bphoto/eOWM4zwMNf3kEWnA5jqwtg/o.jpg,Panisa Thai Dining,2,4.0,232,38.799445,-77.319662,Burke
3187,"[{'alias': 'burgers', 'title': 'Burgers'}, {'alias': 'hotdogs', 'title': 'Fast Food'}]",OGyC3o8t4iIOfcgkNyPG1Q,https://s3-media4.fl.yelpcdn.com/bphoto/7QJPjr77Op-RH3eSPXYG8g/o.jpg,Wendy's,1,2.5,12,37.7574424743652,-77.465705871582,Ashland
1292,"[{'alias': 'hotdog', 'title': 'Hot Dogs'}, {'alias': 'burgers', 'title': 'Burgers'}, {'alias': 'newamerican', 'title': 'American (New)'}]",O1u7NCwwR9epKizQL0ZlEg,https://s3-media2.fl.yelpcdn.com/bphoto/8CZpW7e83pN_NAzHL5VR9w/o.jpg,The Barking Dog,1,4.5,265,37.01748,-76.352205,Hampton
4174,"[{'alias': 'hotdogs', 'title': 'Fast Food'}]",ub8uCTiTth4jxQO_PZZ6jQ,https://s3-media3.fl.yelpcdn.com/bphoto/YZp9E5tIhneD7s70FiuNPA/o.jpg,Chick-fil-A,1,4.5,37,38.728123,-77.799231,Warrenton
152,"[{'alias': 'burgers', 'title': 'Burgers'}, {'alias': 'breweries', 'title': 'Breweries'}]",3DNl-JN3Pf0IxZZ82j6nBw,https://s3-media3.fl.yelpcdn.com/bphoto/ag7lllQtNnAy1rUFtqU4Hw/o.jpg,Me's burgers & brews,2,4.5,78,36.58824,-79.389714,Danville
2802,"[{'alias': 'seafood', 'title': 'Seafood'}]",W97oQ67hwEq0yI4loPRNgQ,https://s3-media2.fl.yelpcdn.com/bphoto/7EXkdKG8eL7NtWCyI1Rzlg/o.jpg,Crazy Crab,2,3.5,45,37.8388653695583,-76.2789150327444,Reedville
2908,"[{'alias': 'seafood', 'title': 'Seafood'}, {'alias': 'gastropubs', 'title': 'Gastropubs'}, {'alias': 'burgers', 'title': 'Burgers'}]",8vOOx-RIClTww4Nv1ydDTQ,https://s3-media1.fl.yelpcdn.com/bphoto/e30xEG6EBPdGNCUpiBzAEw/o.jpg,Burger Bach,2,4.0,284,37.6473159,-77.601624,Glen Allen
4802,"[{'alias': 'indpak', 'title': 'Indian'}]",alJ2MFn-XrDx7GDfGXpLIQ,https://s3-media2.fl.yelpcdn.com/bphoto/hODpAGB9seepWGt8ievfKA/o.jpg,7 Spice Fine Indian Cuisine,2,4.5,171,38.93503,-77.1794,McLean
2111,"[{'alias': 'bbq', 'title': 'Barbeque'}]",dZMkIaaZuocqBGl8TvPRrA,https://s3-media3.fl.yelpcdn.com/bphoto/Ov0jXx2qmOq3-kHXrBD-qw/o.jpg,The Scottish Pig BBQ,1,4.0,7,37.5161198526621,-76.8875323981047,Lanexa
3134,"[{'alias': 'southern', 'title': 'Southern'}]",gXcbzJIR1TKzYvYyFCphMw,https://s3-media2.fl.yelpcdn.com/bphoto/8IKviXIPsr2UnFvSZcD6fw/o.jpg,Maya,2,4.0,252,38.03156,-78.48953,Charlottesville
4333,"[{'alias': 'peruvian', 'title': 'Peruvian'}, {'alias': 'salad', 'title': 'Salad'}]",hS8nOj-8L9BENfsw1n2Hlg,https://s3-media1.fl.yelpcdn.com/bphoto/NHuzAoP44HcQzhPRAnpKZQ/o.jpg,Pollo Royal,1,4.5,27,38.7200843542814,-77.12437748909,Alexandria
1756,"[{'alias': 'burgers', 'title': 'Burgers'}, {'alias': 'hotdogs', 'title': 'Fast Food'}]",KeRi1Cl5GMNuzaFoxEfMUA,,Hardee's,2,5.0,1,37.2420443594456,-81.2610552459955,Bluefield
3014,"[{'alias': 'italian', 'title': 'Italian'}, {'alias': 'pizza', 'title': 'Pizza'}]",yjNqd1QVHqH2AZexna-3cA,https://s3-media2.fl.yelpcdn.com/bphoto/qCdYGRDglV1ce7EgGJcUZg/o.jpg,Vinny's Italian Grill & Pizzeria,2,3.0,11,37.744701385498,-77.135498046875,King William
3892,"[{'alias': 'sandwiches', 'title': 'Sandwiches'}, {'alias': 'italian', 'title': 'Italian'}, {'alias': 'pizza', 'title': 'Pizza'}]",63aXJWQGkhpkbAhyLP7XxA,https://s3-media3.fl.yelpcdn.com/bphoto/hnt9Dl0GM3kiPDaZ2_5HSA/o.jpg,Sam's Pizza & Subs,1,3.5,53,38.423152923584,-77.4076232910156,Stafford
4938,"[{'alias': 'chicken_wings', 'title': 'Chicken Wings'}, {'alias': 'burgers', 'title': 'Burgers'}, {'alias': 'tradamerican', 'title': 'American (Traditional)'}]",c-RzCTPuxQs42P0707-dDw,https://s3-media1.fl.yelpcdn.com/bphoto/0UIgITYKJQsRFYTr7EeH2g/o.jpg,Velocity Wings,2,2.5,82,39.1348717035743,-77.6986888001338,Purcellville
1480,"[{'alias': 'chinese', 'title': 'Chinese'}]",3Z89zNHIkKrT002rCi3VCw,https://s3-media1.fl.yelpcdn.com/bphoto/HJvsq9W_4GLqpiRaVxGTWg/o.jpg,China Garden,1,2.5,19,37.1503994,-80.4149465,Christiansburg
1705,"[{'alias': 'japanese', 'title': 'Japanese'}, {'alias': 'steak', 'title': 'Steakhouses'}]",hHLr5cqynRBn4nnQ9rDjvw,https://s3-media3.fl.yelpcdn.com/bphoto/Jml95yXxAe85zD66wT14ew/o.jpg,Yukihana Japanese Steak House,2,4.0,54,37.1009707897579,-76.4115959864256,Yorktown
31,"[{'alias': 'seafood', 'title': 'Seafood'}, {'alias': 'tradamerican', 'title': 'American (Traditional)'}]",t31qFSoCItvoxGY1sAMqdg,https://s3-media1.fl.yelpcdn.com/bphoto/3owxv3WkBsgr6o1zA_nf6w/o.jpg,Red Lobster,3,3.5,11,36.629250899728,-82.126307985149,Bristol
937,"[{'alias': 'french', 'title': 'French'}, {'alias': 'tradamerican', 'title': 'American (Traditional)'}, {'alias': 'asianfusion', 'title': 'Asian Fusion'}]",Vb2FZtRRfe56vZDg8mnjdQ,https://s3-media3.fl.yelpcdn.com/bphoto/Rk47EtHf2z5LFo1hJHU26w/o.jpg,Nouvelle Restaurant,2,4.5,204,36.8827022,-76.294409,Norfolk
1321,"[{'alias': 'mexican', 'title': 'Mexican'}, {'alias': 'bars', 'title': 'Bars'}]",oA80i9YFkOurNxUnxB-jww,https://s3-media4.fl.yelpcdn.com/bphoto/PsPIc6LA50eDf-XzVCe8Gw/o.jpg,Jessy's Taqueria,2,4.0,659,36.932133,-76.202788,Norfolk
752,"[{'alias': 'pizza', 'title': 'Pizza'}]",6haQIbtT52w5JiwvdIhjBA,https://s3-media4.fl.yelpcdn.com/bphoto/0xuAmXmD5O-aC4qfGAdfXg/o.jpg,DoughMakers pizza,1,4.5,4,36.9348520247556,-82.6275835568783,Norton
5058,"[{'alias': 'hotdogs', 'title': 'Fast Food'}, {'alias': 'chicken_wings', 'title': 'Chicken Wings'}]",jxQ8RJr4cZvLsYWNvUJADA,https://s3-media1.fl.yelpcdn.com/bphoto/-CxO3kKwzNupWNMpZDQWNw/o.jpg,Popeyes Louisiana Kitchen,4,4.0,4,39.2088478,-78.176609,Winchester
309,"[{'alias': 'seafood', 'title': 'Seafood'}, {'alias': 'seafoodmarkets', 'title': 'Seafood Markets'}, {'alias': 'tradamerican', 'title': 'American (Traditional)'}]",841gjfDVzsmEstDNaJFemQ,https://s3-media3.fl.yelpcdn.com/bphoto/KTgnoImj06VAKGpizt3vjA/o.jpg,Off The Hook Seafood Restaurant,2,4.0,304,36.7058006785895,-76.2377220008465,Chesapeake
2580,"[{'alias': 'tradamerican', 'title': 'American (Traditional)'}, {'alias': 'brewpubs', 'title': 'Brewpubs'}]",IRbefUFKJrJfFENkck2qFw,https://s3-media2.fl.yelpcdn.com/bphoto/D1PGC4j2bP2EMmt4Kk-8Jg/o.jpg,Devils Backbone Brewing Company,2,3.5,334,37.870856,-78.918875,Roseland
4116,"[{'alias': 'italian', 'title': 'Italian'}, {'alias': 'pizza', 'title': 'Pizza'}, {'alias': 'chicken_wings', 'title': 'Chicken Wings'}]",WoQlQGrEaKfaBOHZpvc26w,https://s3-media3.fl.yelpcdn.com/bphoto/mkno3Jna0hljJmTpSewY8Q/o.jpg,Pizza Hut,1,3.0,5,38.66614,-78.44725,Luray
4563,"[{'alias': 'chinese', 'title': 'Chinese'}]",pW31vW_mILrCRY72v79KMQ,https://s3-media2.fl.yelpcdn.com/bphoto/tLS0Y0YRDuoYfUByVML6ng/o.jpg,Peking Gourmet Inn,2,4.0,1750,38.8553493857457,-77.1395403227539,Falls Church
2215,"[{'alias': 'hotdogs', 'title': 'Fast Food'}, {'alias': 'burgers', 'title': 'Burgers'}, {'alias': 'coffee', 'title': 'Coffee & Tea'}]",qqkYZnSXZCSJ4apIrU0fnQ,https://s3-media2.fl.yelpcdn.com/bphoto/nTkkGi3EcWR_Gc5s_ra6mw/o.jpg,McDonald's,1,2.5,12,37.5205497526375,-75.8310612291098,Exmore
495,"[{'alias': 'hotdogs', 'title': 'Fast Food'}]",pzqXqOPwM7W5w0tWXgdCKA,https://s3-media2.fl.yelpcdn.com/bphoto/h_Tdvtiy1G-1_sO5Fy59XQ/o.jpg,Bojangles Famous Chicken'n Biscuits,2,3.5,6,36.67466,-78.92801,South Boston
205,"[{'alias': 'hotdogs', 'title': 'Fast Food'}, {'alias': 'burgers', 'title': 'Burgers'}, {'alias': 'coffee', 'title': 'Coffee & Tea'}]",H2W6D7bhXLUIVH1YFezKiA,https://s3-media3.fl.yelpcdn.com/bphoto/LGSSKSEyD-2oDk3hh5c66Q/o.jpg,McDonald's,1,2.5,3,36.5814656853977,-79.3375244736671,Danville
1135,"[{'alias': 'newamerican', 'title': 'American (New)'}, {'alias': 'french', 'title': 'French'}]",wML0GsqbdkUjs0oWA6etAg,https://s3-media1.fl.yelpcdn.com/bphoto/yLr-p2DM6XEcGUH4y9Y0Fg/o.jpg,Blue Apron Restaurant & Red Rooster Bar,2,4.5,156,37.29301,-80.05522,Salem
2813,"[{'alias': 'tradamerican', 'title': 'American (Traditional)'}, {'alias': 'sportsbars', 'title': 'Sports Bars'}, {'alias': 'burgers', 'title': 'Burgers'}]",9MXNYbNCBDjEfl0_KSquZw,https://s3-media1.fl.yelpcdn.com/bphoto/RWtfj9RRWRMAedzEL_gDuQ/o.jpg,Applebee's Grill + Bar,2,2.5,12,37.771042075168,-79.9891971865082,Covington
3536,"[{'alias': 'steak', 'title': 'Steakhouses'}, {'alias': 'seafood', 'title': 'Seafood'}, {'alias': 'wine_bars', 'title': 'Wine Bars'}]",ArKh2UL2nZP3iLrm0wI1Cw,https://s3-media1.fl.yelpcdn.com/bphoto/GCWismQT1xMhV8WDYelteg/o.jpg,Firebirds Wood Fired Grill,2,4.0,278,38.290562,-77.510407,Fredericksburg
4036,"[{'alias': 'pizza', 'title': 'Pizza'}]",h56ACUSMQwl7zgObEilmDw,https://s3-media1.fl.yelpcdn.com/bphoto/VrYdnshZk6gxu0zjYZSctg/o.jpg,Sam's Pizza & Subs,2,3.5,61,38.47533,-77.42921,Stafford
305,"[{'alias': 'tradamerican', 'title': 'American (Traditional)'}]",JdB9jidJeYU8bQcjp5Nbyw,https://s3-media4.fl.yelpcdn.com/bphoto/8sJ9BnS6OzNFaY6QwaLtiA/o.jpg,The Bypass 168,2,4.5,60,36.6596826103511,-76.2343306839466,Chesapeake
3998,"[{'alias': 'hotdog', 'title': 'Hot Dogs'}, {'alias': 'icecream', 'title': 'Ice Cream & Frozen Yogurt'}]",HfLDwccyvE7_8PqvchTJWA,https://s3-media1.fl.yelpcdn.com/bphoto/RxYsNlV7y9Cx_P6hT3o_Uw/o.jpg,Brusters Real Ice Cream,1,3.5,14,38.47509,-77.95497,Culpeper
1941,"[{'alias': 'pizza', 'title': 'Pizza'}, {'alias': 'italian', 'title': 'Italian'}, {'alias': 'chicken_wings', 'title': 'Chicken Wings'}]",KVUZzUOtXXNINel7ImxdjA,https://s3-media4.fl.yelpcdn.com/bphoto/L72seXKKH9QblWbmPOkkmg/o.jpg,Pizza Hut,2,2.5,2,37.3294,-79.51079,Bedford
1061,"[{'alias': 'southern', 'title': 'Southern'}, {'alias': 'breakfast_brunch', 'title': 'Breakfast & Brunch'}, {'alias': 'sandwiches', 'title': 'Sandwiches'}]",9rBb8mYtRNuD410OxL9F2Q,https://s3-media3.fl.yelpcdn.com/bphoto/94qHfx4bp3FsqX_Q_uLd7Q/o.jpg,Robo's Drive In,1,5.0,5,37.0664268,-82.6008503,Pound
843,"[{'alias': 'chinese', 'title': 'Chinese'}]",g_4QCe26y_z6wdHSGKLaGw,https://s3-media2.fl.yelpcdn.com/bphoto/dvhj2dev8kJ-oJZzAueMlw/o.jpg,Kiasxia Chinese Restaurant,1,4.5,3,37.077438,-78.4486794,Keysville
4013,"[{'alias': 'pizza', 'title': 'Pizza'}, {'alias': 'italian', 'title': 'Italian'}, {'alias': 'chicken_wings', 'title': 'Chicken Wings'}]",QCBL8Nc--QReHtRU-t9frA,https://s3-media1.fl.yelpcdn.com/bphoto/GYxEo-9Np4Sc00bKVPMEFw/o.jpg,Pizza Hut,1,3.0,6,38.5818177672108,-77.7663765761027,Bealeton
2367,"[{'alias': 'italian', 'title': 'Italian'}, {'alias': 'pizza', 'title': 'Pizza'}]",X8Q4gqIhxBIQJWA-l2zQtQ,https://s3-media2.fl.yelpcdn.com/bphoto/tBQKqcMa5bDIUV3XFil7Kw/o.jpg,Vinny's Italian Grill,2,4.0,51,37.406041,-77.673053,Midlothian
211,"[{'alias': 'newamerican', 'title': 'American (New)'}]",XUrHDXPNRg2LBfpVOds3Vw,https://s3-media1.fl.yelpcdn.com/bphoto/MBO6vQWvtwtk9yfcOXLHCw/o.jpg,Oak Tree Tavern,2,3.5,10,36.5577526872617,-78.9324056910156,Alton
1108,"[{'alias': 'breakfast_brunch', 'title': 'Breakfast & Brunch'}, {'alias': 'tradamerican', 'title': 'American (Traditional)'}, {'alias': 'comfortfood', 'title': 'Comfort Food'}]",JeD0D_PpYkWOi6GMJZEWFg,https://s3-media2.fl.yelpcdn.com/bphoto/muMl53N-wxYyBt5gKPLKGA/o.jpg,Bob Evans,2,2.0,46,36.9488414556326,-81.0560882091522,Wytheville
3916,"[{'alias': 'chinese', 'title': 'Chinese'}]",xkYgKnYJpc3a0fIDjlPlmw,https://s3-media1.fl.yelpcdn.com/bphoto/nZHct4VXVetmsSoJNQXFtw/o.jpg,Jin Express,1,4.0,16,38.340629,-77.071398,King George
679,"[{'alias': 'vietnamese', 'title': 'Vietnamese'}, {'alias': 'noodles', 'title': 'Noodles'}]",VDyJgnMZALPs7_XHpxHVLA,https://s3-media1.fl.yelpcdn.com/bphoto/c_btYHAFKVEr66iuADckaQ/o.jpg,Pho 79 Noodles & Grill,2,4.0,107,36.767761,-76.015464,Virginia Beach
565,"[{'alias': 'tradamerican', 'title': 'American (Traditional)'}, {'alias': 'burgers', 'title': 'Burgers'}]",aURvqNlG-yNN9SqgpV4ksw,https://s3-media4.fl.yelpcdn.com/bphoto/yydqdbzJ-_vp12KeMoiVIA/o.jpg,Ruby Tuesday,2,2.5,25,36.7717704772949,-76.5847015380859,Suffolk
1221,"[{'alias': 'seafood', 'title': 'Seafood'}, {'alias': 'tradamerican', 'title': 'American (Traditional)'}]",AxhgY6i7ul1uxS2RghEi_g,https://s3-media3.fl.yelpcdn.com/bphoto/QE7jBrb7EGveCbXDt3BRlA/o.jpg,The River Room,2,4.5,9,37.237743,-76.507355,Yorktown
3771,"[{'alias': 'indpak', 'title': 'Indian'}, {'alias': 'foodtrucks', 'title': 'Food Trucks'}]",pLVFqNc1NYmf0t_mxGPEdA,,Swagatam Indian Food,1,5.0,1,38.404376789783,-78.9100796013192,Harrisonburg
680,"[{'alias': 'tradamerican', 'title': 'American (Traditional)'}, {'alias': 'cafes', 'title': 'Cafes'}, {'alias': 'desserts', 'title': 'Desserts'}]",QX71k8Xye440GI2FyLR5oA,https://s3-media1.fl.yelpcdn.com/bphoto/ro_Pc0kk-1X_L6Y-v3H3jQ/o.jpg,Yoder's Cafe,1,4.5,33,36.7770440733153,-76.0904441261851,Virginia Beach
180,"[{'alias': 'bbq', 'title': 'Barbeque'}]",matqm8jKHEDSkX3bNHemUg,https://s3-media1.fl.yelpcdn.com/bphoto/_TQ-hAYSfOCeGIzh9hyEcA/o.jpg,Checkered Pig,2,3.5,38,36.595465859262,-79.425678501265,Danville
4980,"[{'alias': 'spanish', 'title': 'Spanish'}, {'alias': 'italian', 'title': 'Italian'}, {'alias': 'french', 'title': 'French'}]",mBQQnVRJJNSn8OSzo26eNg,https://s3-media3.fl.yelpcdn.com/bphoto/neHvD_gAPvPMY8FaSsfJEw/o.jpg,La Lou Bistro,2,4.0,99,39.11497,-77.56511,Leesburg
1322,"[{'alias': 'mediterranean', 'title': 'Mediterranean'}, {'alias': 'breakfast_brunch', 'title': 'Breakfast & Brunch'}, {'alias': 'tradamerican', 'title': 'American (Traditional)'}]",3BdqoztpaqYeFq0DdthZuA,https://s3-media4.fl.yelpcdn.com/bphoto/A5mjX1Bqynuip9csFueNyA/o.jpg,905 On The Bay,2,4.0,72,36.9479398205033,-76.2419686093926,Norfolk
2436,"[{'alias': 'tradamerican', 'title': 'American (Traditional)'}, {'alias': 'dominican', 'title': 'Dominican'}, {'alias': 'mexican', 'title': 'Mexican'}]",uisKLlVdlMaWcAVQ-dFbuw,https://s3-media3.fl.yelpcdn.com/bphoto/KMwo3xZF6ALcWW56J9pgqg/o.jpg,Fortuna Restaurant,2,3.0,5,37.4380001,-77.4706856,Richmond
4379,"[{'alias': 'diners', 'title': 'Diners'}, {'alias': 'pubs', 'title': 'Pubs'}]",6_Dy3mxHFHmlLyhBUtQUGg,https://s3-media3.fl.yelpcdn.com/bphoto/cqidlW9fnmytWgiwJNhUGw/o.jpg,Hotel Strasburg Restaurant,2,3.5,9,38.9925921676289,-78.3555379725473,Strasburg
278,"[{'alias': 'italian', 'title': 'Italian'}, {'alias': 'pizza', 'title': 'Pizza'}]",GjU-Cv7BrBh_GTPsoNCESQ,https://s3-media3.fl.yelpcdn.com/bphoto/BYcrOBVhH5fyE-PQ--jHcg/o.jpg,Three Guys Italian Restaurant,2,3.0,16,36.6676019,-76.950075,Franklin
1209,"[{'alias': 'bbq', 'title': 'Barbeque'}]",RNhccwJ60K_hbv9uvflWrw,https://s3-media3.fl.yelpcdn.com/bphoto/ikihOoIvkUmvxC6TwbmjNw/o.jpg,Prince George Family Barbecue,2,3.5,100,37.1839866638184,-77.3193969726562,Disputanta
3868,"[{'alias': 'pizza', 'title': 'Pizza'}, {'alias': 'sandwiches', 'title': 'Sandwiches'}]",suNj0NXJaLA_IOE5lCMayA,https://s3-media3.fl.yelpcdn.com/bphoto/lLTJjYiMe07fOO9aQ357tA/o.jpg,J's Pizza & Sub Cafe,1,3.0,26,38.3539699,-77.50641,Fredericksburg
432,"[{'alias': 'restaurants', 'title': 'Restaurants'}]",ICnxhHDWykePjbPv4SphkQ,https://s3-media1.fl.yelpcdn.com/bphoto/7UA7JtJiJcLTt8UgGCpUJw/o.jpg,B & P Drive In,1,4.0,5,36.77232,-80.71768,Hillsville
289,"[{'alias': 'newamerican', 'title': 'American (New)'}]",LBNmbcat4JtitKCt9oeVgQ,https://s3-media4.fl.yelpcdn.com/bphoto/N1jewxJz7-5SGB6L4suXUA/o.jpg,The Plaid Turnip,2,3.5,172,36.7285899,-76.58338,Suffolk
1027,"[{'alias': 'vietnamese', 'title': 'Vietnamese'}]",I5IlnMDW-sOFvvW55bmMOA,https://s3-media3.fl.yelpcdn.com/bphoto/RHlCLX9FoNKdoHaVlgC_Dg/o.jpg,Vietnam Garden,2,4.0,73,36.8426322937012,-76.0529479980469,Virginia Beach
535,"[{'alias': 'mexican', 'title': 'Mexican'}, {'alias': 'tex-mex', 'title': 'Tex-Mex'}, {'alias': 'hotdogs', 'title': 'Fast Food'}]",7QPrS29cINfFvcwOurg-cQ,https://s3-media2.fl.yelpcdn.com/bphoto/ttXvwBT8cGKckJc5ceiMxQ/o.jpg,Taco Bell,1,2.5,10,36.70307,-77.54331,Emporia
3613,"[{'alias': 'hotdogs', 'title': 'Fast Food'}, {'alias': 'chicken_wings', 'title': 'Chicken Wings'}, {'alias': 'chickenshop', 'title': 'Chicken Shop'}]",WC76ZitaI83iXeZ4Crh-rw,https://s3-media3.fl.yelpcdn.com/bphoto/w64i6JqTUdZDj7KJ2jaxeg/o.jpg,KFC,1,2.0,2,38.2302,-78.3709,Ruckersville
1187,"[{'alias': 'tradamerican', 'title': 'American (Traditional)'}]",EjoeZtKsbt8sVcQHvoBGwg,https://s3-media1.fl.yelpcdn.com/bphoto/i1USwt341J_mBFHOFBdHMA/o.jpg,Huddle House,1,2.0,10,37.0620813,-78.0064972,Blackstone
188,"[{'alias': 'pizza', 'title': 'Pizza'}, {'alias': 'italian', 'title': 'Italian'}, {'alias': 'sandwiches', 'title': 'Sandwiches'}]",fSWbpNgbtlqEtWWd4Jzcsg,https://s3-media1.fl.yelpcdn.com/bphoto/LhSbA_MqF2GWTVbPBiR2BQ/o.jpg,Pete's Pizza,4,2.0,6,36.5608099,-79.45619,Danville
2282,"[{'alias': 'mexican', 'title': 'Mexican'}]",zc2-ESgtjqhjcVr2_JN7XQ,https://s3-media3.fl.yelpcdn.com/bphoto/g6_1ZReScbOznUvo6ZpEuA/o.jpg,El Porton Inc Dba Mi Patron,2,4.0,7,37.37218,-79.30414,Forest
706,"[{'alias': 'cocktailbars', 'title': 'Cocktail Bars'}, {'alias': 'tradamerican', 'title': 'American (Traditional)'}]",sKYbfabYjCms8wimhYUB6w,https://s3-media4.fl.yelpcdn.com/bphoto/SgjKGtVFXrvXihFb1BDaTw/o.jpg,Hunt Room,2,4.5,25,36.8694961,-75.9823394,Virginia Beach
2144,"[{'alias': 'pizza', 'title': 'Pizza'}, {'alias': 'italian', 'title': 'Italian'}]",2rkcp_LsI7eFWu6YdeLunw,https://s3-media4.fl.yelpcdn.com/bphoto/IzoUuzPRQ33krbzhdrrVTA/o.jpg,Capriccio Ristorante,2,4.0,44,37.27927,-76.74298,Williamsburg
270,"[{'alias': 'burgers', 'title': 'Burgers'}]",xGvxrLHgx5uMvcirtSQyvQ,https://s3-media4.fl.yelpcdn.com/bphoto/v_t_bQO_s7kcXWr-jsZPzQ/o.jpg,Huddle House,1,2.5,9,36.6649676,-77.5531326,Emporia
3303,"[{'alias': 'diners', 'title': 'Diners'}, {'alias': 'breakfast_brunch', 'title': 'Breakfast & Brunch'}, {'alias': 'hotdogs', 'title': 'Fast Food'}]",iQQSuirsZYGX4F67KhI2dQ,https://s3-media1.fl.yelpcdn.com/bphoto/588hqUkhC_ekvA6_7zrDiw/o.jpg,Jak'n Jil,1,3.0,15,38.032413482666,-78.4628982543945,Charlottesville
4541,"[{'alias': 'korean', 'title': 'Korean'}, {'alias': 'japanese', 'title': 'Japanese'}, {'alias': 'bbq', 'title': 'Barbeque'}]",w_KIG8bsFwHmbcJ_aNb-4A,https://s3-media2.fl.yelpcdn.com/bphoto/e1zTGemS2vTHRa0s41YBkw/o.jpg,Yechon,2,4.0,1481,38.83376,-77.20995,Annandale
2264,"[{'alias': 'burgers', 'title': 'Burgers'}, {'alias': 'hotdogs', 'title': 'Fast Food'}]",I84iiXyXhB7X5D1CsiEzqQ,https://s3-media1.fl.yelpcdn.com/bphoto/7XwUdS0wQR_jHszXdUs6Mg/o.jpg,Wendy's,1,2.5,3,37.3968811,-79.9093475,Daleville
3895,"[{'alias': 'chinese', 'title': 'Chinese'}, {'alias': 'thai', 'title': 'Thai'}, {'alias': 'importedfood', 'title': 'Imported Food'}]",a0083I7k7BE-bnjUBj4Z4g,https://s3-media4.fl.yelpcdn.com/bphoto/Rsk2yh618JWkNpNjTF0wgw/o.jpg,Shunxing Chinese Restaurant,1,4.0,37,38.44923,-77.40048,Stafford
111,"[{'alias': 'bars', 'title': 'Bars'}, {'alias': 'newamerican', 'title': 'American (New)'}, {'alias': 'tradamerican', 'title': 'American (Traditional)'}]",qt09r1zEJUx11grfwL_6rQ,https://s3-media4.fl.yelpcdn.com/bphoto/RsDkzGCOgQE-ZQAK82LT3Q/o.jpg,19th Pub,2,4.5,4,36.6657715,-80.3845901,Meadows of Dan
1170,"[{'alias': 'chinese', 'title': 'Chinese'}, {'alias': 'buffets', 'title': 'Buffets'}]",NO1oyJOZiVjOseSqvJvAow,https://s3-media1.fl.yelpcdn.com/bphoto/r6kBACZ10-A4Q3iO87mphA/o.jpg,China Wok Super Buffet,1,3.5,8,37.1215404942246,-79.2719709646279,Altavista
2059,"[{'alias': 'tex-mex', 'title': 'Tex-Mex'}, {'alias': 'chickenshop', 'title': 'Chicken Shop'}, {'alias': 'mexican', 'title': 'Mexican'}]",nVSgjXNs3d5cnlVGmXR4wA,https://s3-media3.fl.yelpcdn.com/bphoto/UhpMoy8j3ICryIZvNhLMew/o.jpg,Chicken Fiesta,2,4.5,61,37.25269,-77.38483,Colonial Heights
220,"[{'alias': 'newamerican', 'title': 'American (New)'}, {'alias': 'lounges', 'title': 'Lounges'}]",VaO0G4FLvSkmRcNzmyVjBw,https://s3-media1.fl.yelpcdn.com/bphoto/ISu3pYEcd_GsiShVKo1RQg/o.jpg,Four Oaks Restaurant & Lounge,2,3.5,16,36.6965,-78.8927,South Boston
1375,"[{'alias': 'restaurants', 'title': 'Restaurants'}]",3HbLnxh3jDAvux4Scv-Nzw,,Dari King,1,2.0,2,37.1665001,-82.4858398,Clintwood
627,"[{'alias': 'wine_bars', 'title': 'Wine Bars'}, {'alias': 'diners', 'title': 'Diners'}, {'alias': 'newamerican', 'title': 'American (New)'}]",fzknk19mnBpqtRAj0iuDLA,https://s3-media2.fl.yelpcdn.com/bphoto/faaj6nXfGrmCemPHgj_b3g/o.jpg,Passion The Restaurant,2,4.0,144,36.77029,-76.2237,Chesapeake
1305,"[{'alias': 'tradamerican', 'title': 'American (Traditional)'}, {'alias': 'bars', 'title': 'Bars'}, {'alias': 'breakfast_brunch', 'title': 'Breakfast & Brunch'}]",AVnnhwgdtniHrWY-VVRb5w,https://s3-media2.fl.yelpcdn.com/bphoto/UAkrL7awAuwLH7b9NWjZoA/o.jpg,Taphouse,2,3.5,144,37.02602,-76.34354,Hampton
3535,"[{'alias': 'cajun', 'title': 'Cajun/Creole'}, {'alias': 'southern', 'title': 'Southern'}, {'alias': 'seafood', 'title': 'Seafood'}]",X3volKQAZyYqDIjIWEoCbA,https://s3-media3.fl.yelpcdn.com/bphoto/2d0kTUIdP8UveigiwqhfXA/o.jpg,JT's Bourbon Street,2,3.5,95,38.29355,-77.57915,Fredericksburg
4155,"[{'alias': 'steak', 'title': 'Steakhouses'}]",zaiZN3kgAaHdsV_wxg_f9g,https://s3-media4.fl.yelpcdn.com/bphoto/wQPdtT94yij6JvUZCmeJaA/o.jpg,Outback Steakhouse,2,3.0,84,38.73366,-77.77081,Warrenton
790,"[{'alias': 'newamerican', 'title': 'American (New)'}]",ddtWGGSwtpa7f7mOWZDzFQ,https://s3-media1.fl.yelpcdn.com/bphoto/Qa89UqCn9fcwANtKNKoZkg/o.jpg,Country Pride Restaurant,1,4.0,12,36.9646988,-81.0676193,Wytheville
3747,"[{'alias': 'sandwiches', 'title': 'Sandwiches'}, {'alias': 'pizza', 'title': 'Pizza'}]",4Q6gdaxXRxod6DcCmkmeig,https://s3-media4.fl.yelpcdn.com/bphoto/_yF7nbvnu2jbIxt-n_nPSg/o.jpg,Bob A-Rea's Pizza & Subs,1,4.0,3,38.38491,-78.97394,Bridgewater
461,"[{'alias': 'hotdogs', 'title': 'Fast Food'}, {'alias': 'burgers', 'title': 'Burgers'}, {'alias': 'coffee', 'title': 'Coffee & Tea'}]",CtExRRDBsS7YzArihZ_vJg,https://s3-media2.fl.yelpcdn.com/bphoto/WOnkSFFRq0jOMBudxJR1sQ/o.jpg,McDonald's,1,4.0,4,36.7474394658995,-79.9383962794673,Bassett Forks
4508,"[{'alias': 'tradamerican', 'title': 'American (Traditional)'}, {'alias': 'seafood', 'title': 'Seafood'}]",c8IIrhq_HYXZFk7mFOYs1A,https://s3-media1.fl.yelpcdn.com/bphoto/g3GIhzwPi9kxp70Tk2szJA/o.jpg,Mike's American Grill,2,4.5,1550,38.78293,-77.18616,Springfield
551,"[{'alias': 'hotdogs', 'title': 'Fast Food'}]",6W_Z3vHx-4O0ztk7mYMSkw,https://s3-media4.fl.yelpcdn.com/bphoto/jGSVshTxEt3fBuveKuy7aQ/o.jpg,Burger King,1,3.0,1,36.6693404,-76.9490216,Franklin
4917,"[{'alias': 'mexican', 'title': 'Mexican'}, {'alias': 'hotdogs', 'title': 'Fast Food'}]",ZDOrHfq7cYfFGtcq7vPRFA,https://s3-media3.fl.yelpcdn.com/bphoto/M5j6Xgvur_FP_Hmsl-YE3w/o.jpg,Chipotle Mexican Grill,1,3.0,70,39.16179,-78.16808,Winchester
4314,"[{'alias': 'korean', 'title': 'Korean'}]",XsPvO1bUezsjeURUNJcdTg,https://s3-media1.fl.yelpcdn.com/bphoto/LOyPPOSEP4PGl3RJyA1gvw/o.jpg,Kimchi House,2,4.0,217,38.726131439209,-77.1132507324219,Alexandria
198,"[{'alias': 'delis', 'title': 'Delis'}]",eUD90ILliaBL6G1HS2-pcg,https://s3-media2.fl.yelpcdn.com/bphoto/vBKZKP2DXsTykqjOJGLHsw/o.jpg,O'Kelly's Deli & Pastries,1,4.5,6,36.565601348877,-79.4047470092773,Danville
4502,"[{'alias': 'tradamerican', 'title': 'American (Traditional)'}, {'alias': 'seafood', 'title': 'Seafood'}, {'alias': 'bbq', 'title': 'Barbeque'}]",-Eacji2oslETYoSu80mzxg,https://s3-media3.fl.yelpcdn.com/bphoto/gEMGYbATqQ_k0BBlLxRmPQ/o.jpg,Artie's,2,4.0,658,38.8628979,-77.2767243,Fairfax
3759,"[{'alias': 'vietnamese', 'title': 'Vietnamese'}, {'alias': 'sandwiches', 'title': 'Sandwiches'}, {'alias': 'soup', 'title': 'Soup'}]",WIpG3Dvh5pA6zSn_9BQhGQ,https://s3-media3.fl.yelpcdn.com/bphoto/F3FW3n07nNbaFYjvrpVOxA/o.jpg,Vietopia,1,4.5,114,38.4206783873907,-78.8715721294284,Harrisonburg
402,"[{'alias': 'mexican', 'title': 'Mexican'}]",V8qDu7XgGaYePJo_VwBMnA,https://s3-media2.fl.yelpcdn.com/bphoto/ggNSlOX_81iD4o2hq5oZ3g/o.jpg,Mi Puerto,1,3.5,29,36.845382,-81.4971364,Marion
3220,"[{'alias': 'burgers', 'title': 'Burgers'}, {'alias': 'hotdogs', 'title': 'Fast Food'}]",StA6vwLUMU1IeTKiFbflbw,https://s3-media2.fl.yelpcdn.com/bphoto/F0rvBg23U28XXl2sCoL1jw/o.jpg,Wendy's,1,2.5,10,37.932023,-79.232007,Raphine
3427,"[{'alias': 'japanese', 'title': 'Japanese'}, {'alias': 'seafood', 'title': 'Seafood'}, {'alias': 'sushi', 'title': 'Sushi Bars'}]",HWkIKvB2e5EynLTdxoR9qA,https://s3-media3.fl.yelpcdn.com/bphoto/wGwWxupbS8yySCG-frREzg/o.jpg,Osaka III Japanese,2,4.0,53,38.06667,-78.93161,Waynesboro
4879,"[{'alias': 'italian', 'title': 'Italian'}]",8UYmSHIcWOT4jzDow__Hiw,https://s3-media4.fl.yelpcdn.com/bphoto/5xolZuHoP40UmQzD6RYQxA/o.jpg,Roma On the Go,2,3.5,32,39.15828,-78.18565,Winchester
4101,"[{'alias': 'hotdogs', 'title': 'Fast Food'}]",XV1qK06SbUKSwc6JxJhtyQ,https://s3-media2.fl.yelpcdn.com/bphoto/Dxu9X-ydIYtvVLvLsK1duw/o.jpg,Hardee's,1,1.5,3,38.6288,-78.77801,Timberville
4816,"[{'alias': 'burgers', 'title': 'Burgers'}]",WvoVt-Px_aq_uUIlOsTM2w,https://s3-media1.fl.yelpcdn.com/bphoto/TaBayRh9mCIYoOzmKo055Q/o.jpg,Social Burger,2,4.0,284,38.8968226711521,-77.2704399771551,Vienna
4571,"[{'alias': 'mediterranean', 'title': 'Mediterranean'}, {'alias': 'greek', 'title': 'Greek'}, {'alias': 'italian', 'title': 'Italian'}]",pUN_E85fRql6H_9uPzE6HA,https://s3-media2.fl.yelpcdn.com/bphoto/hD2TFSVNVbgTYlxjunbYgw/o.jpg,Vaso's Mediterranean Bistro,2,4.5,329,38.805674,-77.052189,Alexandria
650,"[{'alias': 'tradamerican', 'title': 'American (Traditional)'}]",y_I3a7ZLNrwu3_5gHgupcw,https://s3-media4.fl.yelpcdn.com/bphoto/0Ej_dxGBx2kwarA5Wl41CA/o.jpg,Angie's Family Restaurant,1,4.0,43,36.7157175047641,-76.1846085521149,Chesapeake
708,"[{'alias': 'newamerican', 'title': 'American (New)'}, {'alias': 'beerbar', 'title': 'Beer Bar'}]",KbmFpIOvYv4LL3KR3DCpVw,https://s3-media3.fl.yelpcdn.com/bphoto/6Kz3exPStZ2f0DcmKYfjjQ/o.jpg,Esoteric,2,4.0,165,36.844093,-75.979598,Virginia Beach
1609,"[{'alias': 'breakfast_brunch', 'title': 'Breakfast & Brunch'}, {'alias': 'burgers', 'title': 'Burgers'}, {'alias': 'tradamerican', 'title': 'American (Traditional)'}]",5mlBnRG8hxjKAWROO4eNiw,https://s3-media2.fl.yelpcdn.com/bphoto/1toFcxrNOz8pPsW2oKObtg/o.jpg,Patsy's Diner,1,4.0,15,37.441332,-77.036626,Providence Forge
4521,"[{'alias': 'poke', 'title': 'Poke'}, {'alias': 'seafood', 'title': 'Seafood'}, {'alias': 'hawaiian', 'title': 'Hawaiian'}]",DSq6JVH0ttByY7lp1d08Hg,https://s3-media1.fl.yelpcdn.com/bphoto/EM2umAzSIKajtCd6EiHUzw/o.jpg,Pokéworks,2,4.0,291,38.8306732177734,-77.1884918212891,Annandale
1564,"[{'alias': 'asianfusion', 'title': 'Asian Fusion'}, {'alias': 'seafood', 'title': 'Seafood'}, {'alias': 'sushi', 'title': 'Sushi Bars'}]",bUxdX-fQx_s4lzYrQmTHvA,https://s3-media3.fl.yelpcdn.com/bphoto/ktIHIHkjuHFFcXYTYvCKRQ/o.jpg,Bluefish Grill,2,4.5,167,37.422948,-77.636817,Midlothian
3253,"[{'alias': 'modern_european', 'title': 'Modern European'}, {'alias': 'belgian', 'title': 'Belgian'}, {'alias': 'french', 'title': 'French'}]",r8oRIhFbc3cig2UvrNx-zw,https://s3-media1.fl.yelpcdn.com/bphoto/af4i5g3gtZxH0OC2ii7uVA/o.jpg,Brasserie Saison,3,4.0,79,38.03083,-78.48111,Charlottesville
3167,"[{'alias': 'pizza', 'title': 'Pizza'}, {'alias': 'chicken_wings', 'title': 'Chicken Wings'}, {'alias': 'desserts', 'title': 'Desserts'}]",AY07UreqGmGAFOVRxVj3QQ,https://s3-media2.fl.yelpcdn.com/bphoto/ODUR58_LmgQbnoVcOZyGqQ/o.jpg,Pepicelli's Pizza,2,3.5,58,37.75562,-77.47197,Ashland
3230,"[{'alias': 'pizza', 'title': 'Pizza'}]",k8JEdz61dht4STt4wZCasQ,https://s3-media1.fl.yelpcdn.com/bphoto/wA44PhrNEwBWjFLGcvo_AQ/o.jpg,Ciro's Pizza,1,4.5,10,38.0373018980026,-79.0400346368551,Stuarts Draft
314,"[{'alias': 'tex-mex', 'title': 'Tex-Mex'}]",i5FylzvjQcvNwLTzpaygqA,https://s3-media4.fl.yelpcdn.com/bphoto/HRFS5QAlr280KPrRq90U-g/o.jpg,619 Cantina,2,4.0,99,36.6979340918548,-76.2342649710844,Chesapeake
4978,"[{'alias': 'burgers', 'title': 'Burgers'}, {'alias': 'hotdog', 'title': 'Hot Dogs'}, {'alias': 'tradamerican', 'title': 'American (Traditional)'}]",hoZKRwLaAqd3CRWdrYlo_w,https://s3-media3.fl.yelpcdn.com/bphoto/wL15d4N9ku2z2-0eaLT-rA/o.jpg,The Burger Shack,1,4.0,60,39.0423199,-77.52208,Ashburn
4742,"[{'alias': 'tradamerican', 'title': 'American (Traditional)'}, {'alias': 'breakfast_brunch', 'title': 'Breakfast & Brunch'}, {'alias': 'diners', 'title': 'Diners'}]",nj_CF7KpyADLYEGFr7QWPw,https://s3-media2.fl.yelpcdn.com/bphoto/-uNa6LLH6jpP2RoXwOuszA/o.jpg,Joe's Cafe,1,4.5,491,39.005065,-77.427193,Sterling
113,"[{'alias': 'southern', 'title': 'Southern'}, {'alias': 'tradamerican', 'title': 'American (Traditional)'}]",ntLni_MSD6ZKjf7ukEHRaA,https://s3-media3.fl.yelpcdn.com/bphoto/8lFm5-A2LDUvK0C7DDFzpg/o.jpg,Jane's Country Cafe,1,4.0,18,36.7349943645615,-80.4081894156601,Meadows of Dan
960,"[{'alias': 'cajun', 'title': 'Cajun/Creole'}, {'alias': 'seafood', 'title': 'Seafood'}]",nGMQHO9cSsFhkGoyIg6Gjg,https://s3-media2.fl.yelpcdn.com/bphoto/8ksj9wcdZw8Ufu1TEbabog/o.jpg,Shaking Crab,2,4.5,469,36.8013481300394,-76.174967092709,Virginia Beach
3066,"[{'alias': 'delis', 'title': 'Delis'}, {'alias': 'grocery', 'title': 'Grocery'}, {'alias': 'sandwiches', 'title': 'Sandwiches'}]",_xCIEbLOIHK3lAy21Ho2_Q,https://s3-media4.fl.yelpcdn.com/bphoto/17mNfrFDP9TOHCDF3QAAuA/o.jpg,Poseidon's Pantry Gourmet,1,4.5,100,37.9356944,-75.3683942,Chincoteague Island
2374,"[{'alias': 'hotdogs', 'title': 'Fast Food'}, {'alias': 'delis', 'title': 'Delis'}, {'alias': 'sandwiches', 'title': 'Sandwiches'}]",vZWeASObvX_AHDzEmfhYSQ,https://s3-media2.fl.yelpcdn.com/bphoto/dt-DzxWtDZJf3VH5FosNzA/o.jpg,Jersey Mike's Subs,2,2.5,18,37.4026609307104,-77.6743995292915,Chesterfield
4374,"[{'alias': 'thai', 'title': 'Thai'}]",z-o-XY9ChlAnRpFF7tOBFg,https://s3-media1.fl.yelpcdn.com/bphoto/QVQcF7IFfUsn6CEn76_9VQ/o.jpg,Thunwa Thai Cuisine,2,4.5,116,38.9172782897949,-78.1859436035156,Front Royal
3499,"[{'alias': 'italian', 'title': 'Italian'}, {'alias': 'pizza', 'title': 'Pizza'}, {'alias': 'sandwiches', 'title': 'Sandwiches'}]",QKT3il9rgOjT0wB1CjWoAQ,https://s3-media4.fl.yelpcdn.com/bphoto/oD_1EjdojXcRS5kY-SQJaA/o.jpg,Fabio's NY Pizza & Cucina Italiana,2,4.0,30,38.1850267,-78.3273245,Barboursville
5118,"[{'alias': 'pizza', 'title': 'Pizza'}]",ck2BzrDYbG_bXfY84njxOQ,https://s3-media2.fl.yelpcdn.com/bphoto/0KV_mbImqBipiWKgOin5Gg/o.jpg,Godfathers Pizza,1,2.5,3,39.38207,-78.29926,Cross Junction
1726,"[{'alias': 'hotdogs', 'title': 'Fast Food'}, {'alias': 'sandwiches', 'title': 'Sandwiches'}]",z0vBq_vGgqfX2BRVcbp9eg,,Subway,1,4.5,3,37.0484295,-76.3093958,Hampton
4210,"[{'alias': 'newamerican', 'title': 'American (New)'}, {'alias': 'colombian', 'title': 'Colombian'}]",DduXa6TW21QaFRq2J2LiCw,https://s3-media3.fl.yelpcdn.com/bphoto/t-5zWhwW_WcvvnSrZ-G9NQ/o.jpg,Kokorico,1,4.0,4,38.745703,-77.4741368,Manassas
4295,"[{'alias': 'japanese', 'title': 'Japanese'}]",tmMYR4bnyPdczc1U2Vuz_Q,https://s3-media1.fl.yelpcdn.com/bphoto/9aGR5rVEEPl48pjFOqtDUg/o.jpg,Jangko,2,4.0,89,38.6551768,-77.2522195,Woodbridge
3893,"[{'alias': 'halal', 'title': 'Halal'}, {'alias': 'indpak', 'title': 'Indian'}, {'alias': 'pakistani', 'title': 'Pakistani'}]",-PF9RAe0b_-_7wipzDgOXA,https://s3-media3.fl.yelpcdn.com/bphoto/hDDBhlVpTcAgCs7VODR9QQ/o.jpg,Stafford Kabob Room,2,4.0,39,38.4569005497617,-77.4073937907815,Stafford
4637,"[{'alias': 'bars', 'title': 'Bars'}, {'alias': 'newamerican', 'title': 'American (New)'}]",o3DiFZImDuCa_mSa6JnLMA,https://s3-media1.fl.yelpcdn.com/bphoto/T1uldgwbR2bNHpCuzwCkpw/o.jpg,Houlihan's,2,3.0,60,38.987587,-78.181785,Front Royal
4381,"[{'alias': 'gourmet', 'title': 'Specialty Food'}, {'alias': 'cafes', 'title': 'Cafes'}, {'alias': 'grocery', 'title': 'Grocery'}]",n3XlJwBjFioPaaBhGvPTIA,https://s3-media4.fl.yelpcdn.com/bphoto/ZqW58lVqavnRvASl0X7Nbg/o.jpg,Gentle Harvest,2,4.0,45,38.8648499,-77.8579199,Marshall
2072,"[{'alias': 'mexican', 'title': 'Mexican'}]",8CIjOvoO9z8YAG6_yLwazQ,https://s3-media4.fl.yelpcdn.com/bphoto/nIH8CbHKqzafh3sp01B5Ow/o.jpg,Don Jose,2,4.0,50,37.278904,-77.412056,Colonial Heights
1383,"[{'alias': 'pizza', 'title': 'Pizza'}, {'alias': 'italian', 'title': 'Italian'}, {'alias': 'chicken_wings', 'title': 'Chicken Wings'}]",974n9ZqVN5kz88R7Y4hsNQ,https://s3-media1.fl.yelpcdn.com/bphoto/JDT7icevwdVcLvg45OlgAg/o.jpg,Pizza Hut,1,2.0,3,37.1341590881348,-81.5074234008789,North Tazewell
326,"[{'alias': 'pizza', 'title': 'Pizza'}, {'alias': 'cheesesteaks', 'title': 'Cheesesteaks'}, {'alias': 'sandwiches', 'title': 'Sandwiches'}]",-2YFAcAfhjHGp9IGM_BjcQ,https://s3-media3.fl.yelpcdn.com/bphoto/z4OTbbXxP8B0RwZa23j39w/o.jpg,Baba's Pizzeria,2,5.0,48,36.66026,-76.23394,Chesapeake
604,"[{'alias': 'sushi', 'title': 'Sushi Bars'}]",DbVPD7g3HigDhwRgjPmtGg,https://s3-media2.fl.yelpcdn.com/bphoto/TQRYdzLY49FGUI2eZYLBdA/o.jpg,Yu-Mi Sushi,2,4.5,36,36.71206,-76.27584,Chesapeake
4293,"[{'alias': 'soulfood', 'title': 'Soul Food'}]",Aod9GBCGAR_jbiGo8Cv2eQ,https://s3-media4.fl.yelpcdn.com/bphoto/YaGtHE6_15GchVilwNROZg/o.jpg,Fuentes Mini Grill,1,4.5,23,38.6628837585449,-77.2543487548828,Woodbridge
3179,"[{'alias': 'hotdogs', 'title': 'Fast Food'}]",jeviSTW0yxSsgbP_svAcTA,https://s3-media2.fl.yelpcdn.com/bphoto/lG13kESbIrNk4Jl9Z5D2_Q/o.jpg,Chick-fil-A,1,3.5,29,37.757845,-77.464226,Ashland
2714,"[{'alias': 'thai', 'title': 'Thai'}, {'alias': 'cocktailbars', 'title': 'Cocktail Bars'}, {'alias': 'noodles', 'title': 'Noodles'}]",PSmvxRyt3QaojrmYDQFzEg,https://s3-media2.fl.yelpcdn.com/bphoto/pU1ybrGWXbxonSmFE_Jq9A/o.jpg,My Noodle & Bar,2,4.0,232,37.552969,-77.457759,Richmond
4211,"[{'alias': 'bakeries', 'title': 'Bakeries'}, {'alias': 'latin', 'title': 'Latin American'}]",i6-QHQwma-_cvkfm9b_tVQ,https://s3-media1.fl.yelpcdn.com/bphoto/XDzVYZ3hfuOOY-FuZe3eCA/o.jpg,La Flor De Puebla Bakery Cafe,2,3.5,16,38.7288437338385,-77.4718848241692,Manassas
2932,"[{'alias': 'seafood', 'title': 'Seafood'}, {'alias': 'asianfusion', 'title': 'Asian Fusion'}, {'alias': 'soulfood', 'title': 'Soul Food'}]",A62bTt1LB_S8H9mFjYwWbw,https://s3-media2.fl.yelpcdn.com/bphoto/n_q5aqCvZaBZ7E2HXggcbw/o.jpg,Crustacean Boil and Grill,2,4.0,235,37.6349057,-77.5458257,Henrico
3012,"[{'alias': 'diners', 'title': 'Diners'}]",JeghJKNoHBDREj80efWZ-w,https://s3-media2.fl.yelpcdn.com/bphoto/YB98fJPB7pabrvHUtRPArw/o.jpg,Ripley's Family Restaurant,1,4.5,14,37.738834,-77.133743,Aylett
4144,"[{'alias': 'pubs', 'title': 'Pubs'}, {'alias': 'irish', 'title': 'Irish'}]",Z1OUf1sg9mOR0va3KOAYUw,https://s3-media3.fl.yelpcdn.com/bphoto/8agNEawMPRRF85luUVxUhA/o.jpg,Molly's Irish Pub,2,3.5,121,38.71311,-77.79487,Warrenton
4195,"[{'alias': 'thai', 'title': 'Thai'}, {'alias': 'salad', 'title': 'Salad'}, {'alias': 'noodles', 'title': 'Noodles'}]",SK-0YOT-J8pHUySD94w6hQ,https://s3-media2.fl.yelpcdn.com/bphoto/ltHYH76I-H-leKa1S-QkDQ/o.jpg,Thai Tyme,2,4.5,128,38.7335865,-77.4760014,Manassas
1751,"[{'alias': 'newamerican', 'title': 'American (New)'}, {'alias': 'bars', 'title': 'Bars'}]",sU1YlwiR_K90FotxXJkGkg,https://s3-media1.fl.yelpcdn.com/bphoto/w4H1PNADZ7v81p4IkttcvA/o.jpg,Charlotte Hotel & Restaurant,3,4.5,25,37.7124988,-75.7488905,Onancock
1862,"[{'alias': 'sushi', 'title': 'Sushi Bars'}, {'alias': 'asianfusion', 'title': 'Asian Fusion'}, {'alias': 'chinese', 'title': 'Chinese'}]",H90M7HONIoAps_ZIZnmo6w,https://s3-media2.fl.yelpcdn.com/bphoto/XJ5jc-PyrHQLvIHUEOVaJA/o.jpg,Cafe Asia 2,2,4.0,103,37.2258319,-79.9984489,Roanoke
3680,"[{'alias': 'bars', 'title': 'Bars'}, {'alias': 'newamerican', 'title': 'American (New)'}, {'alias': 'burgers', 'title': 'Burgers'}]",gH8f__DMFvd7uqY9qgLl7w,https://s3-media4.fl.yelpcdn.com/bphoto/trIrbR8eLmOq-FZ9--OKnw/o.jpg,Kybecca,2,4.0,269,38.3026681,-77.4618584,Fredericksburg
789,"[{'alias': 'tradamerican', 'title': 'American (Traditional)'}, {'alias': 'sportsbars', 'title': 'Sports Bars'}, {'alias': 'burgers', 'title': 'Burgers'}]",BmocG3aOxNhrd_XOudL-9A,https://s3-media2.fl.yelpcdn.com/bphoto/TSN4JHpSO6y5uqbXwSha4A/o.jpg,Applebee's Grill + Bar,2,2.5,26,36.949975,-81.065103,Wytheville
3246,"[{'alias': 'seafood', 'title': 'Seafood'}, {'alias': 'french', 'title': 'French'}, {'alias': 'lounges', 'title': 'Lounges'}]",wwqCgnhoSNtZc-poUNWB1g,https://s3-media4.fl.yelpcdn.com/bphoto/RVUgMcuUTvA5cg99rNur1A/o.jpg,The Alley Light,3,4.0,174,38.0305952,-78.4823994,Charlottesville
1553,"[{'alias': 'tradamerican', 'title': 'American (Traditional)'}, {'alias': 'sportsbars', 'title': 'Sports Bars'}, {'alias': 'chicken_wings', 'title': 'Chicken Wings'}]",oizj1Y_-shPZOAk3nklcmg,https://s3-media1.fl.yelpcdn.com/bphoto/6prfp_K-lFQNoOu6uGT_2A/o.jpg,Buffalo Wild Wings,2,2.0,10,37.2853757,-78.3963521,Farmville
2820,"[{'alias': 'chinese', 'title': 'Chinese'}]",5kLSKt_izjSNan48lQlJww,https://s3-media1.fl.yelpcdn.com/bphoto/1yegZx_vBk44L1j_q8OJwQ/o.jpg,China House,2,3.5,9,37.7701683,-79.991539,Covington
871,"[{'alias': 'chinese', 'title': 'Chinese'}, {'alias': 'japanese', 'title': 'Japanese'}, {'alias': 'soup', 'title': 'Soup'}]",oT-Bt1nctzL7Cbr1nDfdZA,https://s3-media1.fl.yelpcdn.com/bphoto/wddoCh9DMp4ZXe76PkDExg/o.jpg,Chen's Asian Grill,1,4.5,10,37.1339067388595,-76.8245691865088,Surry
3027,"[{'alias': 'seafood', 'title': 'Seafood'}, {'alias': 'tacos', 'title': 'Tacos'}, {'alias': 'sandwiches', 'title': 'Sandwiches'}]",muWWsrFwVPoON5xbs1ucsg,https://s3-media3.fl.yelpcdn.com/bphoto/HfvYDj-1vH_SBVS6KpWpuQ/o.jpg,Lowery's,2,3.5,68,37.9260164238066,-76.859059342214,Tappahannock
2118,"[{'alias': 'latin', 'title': 'Latin American'}, {'alias': 'mexican', 'title': 'Mexican'}, {'alias': 'peruvian', 'title': 'Peruvian'}]",TC6ewf1EOPkn6e5LNhYJOw,https://s3-media2.fl.yelpcdn.com/bphoto/v6EITCy1vlznxLKTIUOwMw/o.jpg,El Sabroson,2,4.0,287,37.2889116400181,-76.7177084032208,Williamsburg
1434,"[{'alias': 'tradamerican', 'title': 'American (Traditional)'}, {'alias': 'breakfast_brunch', 'title': 'Breakfast & Brunch'}]",l9WuydB9IzScEXjv6HnuFA,https://s3-media1.fl.yelpcdn.com/bphoto/e_MA1fGBt3wx5oRbU7CHNQ/o.jpg,BT'S,2,3.5,35,37.1392113,-80.5532734,Radford
73,"[{'alias': 'newamerican', 'title': 'American (New)'}]",ifU6OQNiZy9ZpnNW3edepA,https://s3-media2.fl.yelpcdn.com/bphoto/6v1TGSGYxmpYMTBLbJ_zRw/o.jpg,Sisters,3,3.5,12,36.709514,-81.975343,Abingdon
1907,"[{'alias': 'thai', 'title': 'Thai'}]",VOITCljnPErQ6OIh3vL2TQ,https://s3-media1.fl.yelpcdn.com/bphoto/PVCThRZws6frnsrHtjkgzw/o.jpg,Red Jasmine,2,4.0,40,37.2795600891113,-79.8974380493164,Vinton
4615,"[{'alias': 'mexican', 'title': 'Mexican'}]",Z3TAiFOlchHD1q2ucKx1zA,https://s3-media2.fl.yelpcdn.com/bphoto/Lg_NXWeXJphIOpgyXbqO_Q/o.jpg,Jalisco Mexican Restaurant,2,3.5,44,38.9881075069258,-78.3579026090192,Strasburg
1873,"[{'alias': 'burgers', 'title': 'Burgers'}, {'alias': 'pizza', 'title': 'Pizza'}]",3Fo7jxGhMhzPHgBLQ2bphQ,https://s3-media2.fl.yelpcdn.com/bphoto/HGh7nzj4WpWIO4EUjpGoqQ/o.jpg,Beamer's 25,2,4.0,161,37.272606,-79.94816,Roanoke
3172,"[{'alias': 'pizza', 'title': 'Pizza'}]",F5mE7UmkmBOITuSOLCJ5xw,https://s3-media1.fl.yelpcdn.com/bphoto/imDodAJDnWmPd5SKF5GRMw/o.jpg,Little Caesars Pizza,1,2.0,5,37.7545464868951,-77.4709694742007,Ashland
92,"[{'alias': 'sandwiches', 'title': 'Sandwiches'}, {'alias': 'pastashops', 'title': 'Pasta Shops'}, {'alias': 'newamerican', 'title': 'American (New)'}]",aiURYPB7MCPOoYakjLGXVA,https://s3-media4.fl.yelpcdn.com/bphoto/vX7nLsxpjrSParU9iH7Gyw/o.jpg,Twisted Fork,2,4.0,30,36.6609593,-80.925179,Galax
4684,"[{'alias': 'mexican', 'title': 'Mexican'}]",xCGslcSUY965LyYFKxO8MA,https://s3-media2.fl.yelpcdn.com/bphoto/SJEtlUnoFnQWXPb9kCRopA/o.jpg,Pupuseria Rosita,1,4.0,7,38.9529609680176,-77.5811614990234,Aldie
4810,"[{'alias': 'vietnamese', 'title': 'Vietnamese'}]",wQtqmL7g3UoM50h7sTfaSA,https://s3-media3.fl.yelpcdn.com/bphoto/civIVa8cz3HKUuLO2R3osQ/o.jpg,Four Sisters Restaurant,2,4.0,1054,38.8725442120128,-77.228294009942,Falls Church
3035,"[{'alias': 'diners', 'title': 'Diners'}, {'alias': 'soulfood', 'title': 'Soul Food'}, {'alias': 'seafood', 'title': 'Seafood'}]",pxOKD8cKSY3ntHIy9emqKw,https://s3-media3.fl.yelpcdn.com/bphoto/q07SpzIkMBi8B_iSJM_wLQ/o.jpg,Virginia Street Cafe,2,3.5,15,37.636628,-76.574925,Urbanna
3039,"[{'alias': 'newamerican', 'title': 'American (New)'}, {'alias': 'tradamerican', 'title': 'American (Traditional)'}, {'alias': 'sandwiches', 'title': 'Sandwiches'}]",kbYYFroGvR_GZ1n5oKwgww,https://s3-media2.fl.yelpcdn.com/bphoto/KgCh99yQsIskZLSLGh5CrA/o.jpg,Car Wash Cafe,2,4.5,81,37.72166,-76.38706,Kilmarnock
1877,"[{'alias': 'cuban', 'title': 'Cuban'}, {'alias': 'desserts', 'title': 'Desserts'}, {'alias': 'sandwiches', 'title': 'Sandwiches'}]",JO4Kx9CZlv7ZFq1wmm7RNg,https://s3-media3.fl.yelpcdn.com/bphoto/xT3E2YIe2p9LqYu39L5Njg/o.jpg,Cuban Island Restaurant,1,4.5,198,37.2996930691346,-79.9413123385797,Roanoke
494,"[{'alias': 'restaurants', 'title': 'Restaurants'}]",bzMqObxHbgVyZ2rmswm8oQ,https://s3-media2.fl.yelpcdn.com/bphoto/fHTMDuI-hxnNtu-1o_830Q/o.jpg,Dairy Dell,1,4.0,11,36.6879349,-78.8968582,South Boston
4616,"[{'alias': 'chinese', 'title': 'Chinese'}, {'alias': 'buffets', 'title': 'Buffets'}]",g4vxqQUdtXONqNVpjCVNLA,https://s3-media1.fl.yelpcdn.com/bphoto/YDpv_M_iaT244nowtr4LLQ/o.jpg,Golden China Asian Cuisine,1,3.0,21,39.00459,-78.33886,Strasburg
2299,"[{'alias': 'szechuan', 'title': 'Szechuan'}, {'alias': 'asianfusion', 'title': 'Asian Fusion'}]",ZeoX88zP_ONytvpznx-QuQ,https://s3-media4.fl.yelpcdn.com/bphoto/8mLF4dAQfG_ptGAI18Iw8Q/o.jpg,Andy Chang China Grill,2,4.0,75,37.3746302919745,-79.2470086951996,Forest
1374,"[{'alias': 'gluten_free', 'title': 'Gluten-Free'}, {'alias': 'cheese', 'title': 'Cheese Shops'}, {'alias': 'beer_and_wine', 'title': 'Beer, Wine & Spirits'}]",dJ_GMAJW_nlYhgVJSYfCDQ,https://s3-media3.fl.yelpcdn.com/bphoto/e1us7fML-v4P-jht8_-qCg/o.jpg,Gull Hummock Gourmet Market,2,4.5,10,37.2673302,-76.0203629,Cape Charles
1164,"[{'alias': 'tradamerican', 'title': 'American (Traditional)'}, {'alias': 'bars', 'title': 'Bars'}]",c8NfXW1DVQtbnl4ZLzIjYg,https://s3-media2.fl.yelpcdn.com/bphoto/irLpJ1Ql9cZslzFiWS1DXg/o.jpg,Colonial Restaurant,1,4.5,16,37.25186,-79.18788,Rustburg
1330,"[{'alias': 'breakfast_brunch', 'title': 'Breakfast & Brunch'}, {'alias': 'diners', 'title': 'Diners'}, {'alias': 'sandwiches', 'title': 'Sandwiches'}]",7Q7CSFfgnFERT78JOKbXxQ,https://s3-media3.fl.yelpcdn.com/bphoto/OXuRhZVR451pt_tGY7Rmzg/o.jpg,Oceanview Diner,1,4.5,45,36.94726,-76.24011,Norfolk
1270,"[{'alias': 'tradamerican', 'title': 'American (Traditional)'}, {'alias': 'breakfast_brunch', 'title': 'Breakfast & Brunch'}]",dleiutongwQvN_ZJv6aiTg,https://s3-media4.fl.yelpcdn.com/bphoto/AWXxE5KzVMUWxperXg5T1Q/o.jpg,Eddie's,1,4.0,13,36.98207,-76.43491,Newport News
3400,"[{'alias': 'breakfast_brunch', 'title': 'Breakfast & Brunch'}]",q_2bEz3-g50AvC8Yl6mdmg,https://s3-media3.fl.yelpcdn.com/bphoto/bZU8mI-7o9oZSwm1U-kU6A/o.jpg,24 Market,2,3.5,4,38.1487,-79.07062,Staunton
3941,"[{'alias': 'mexican', 'title': 'Mexican'}, {'alias': 'convenience', 'title': 'Convenience Stores'}]",uzwyb8N-forIxFFeM8q-JQ,https://s3-media2.fl.yelpcdn.com/bphoto/s5xBLVLFNLRdl_LF6t84Bg/o.jpg,La Morena,1,4.5,31,38.459019,-78.874595,Harrisonburg
2287,"[{'alias': 'pizza', 'title': 'Pizza'}, {'alias': 'chicken_wings', 'title': 'Chicken Wings'}, {'alias': 'sandwiches', 'title': 'Sandwiches'}]",aEHbJKaYZ-Mves0f4Tjujg,https://s3-media1.fl.yelpcdn.com/bphoto/U-8sbG9ptOG1plvZ5srUXA/o.jpg,Domino's Pizza,2,1.5,4,37.3700233,-79.3017448,Forest
4270,"[{'alias': 'bars', 'title': 'Bars'}, {'alias': 'seafood', 'title': 'Seafood'}, {'alias': 'latin', 'title': 'Latin American'}]",SghD7sDQnrdpdHRHciG_4g,https://s3-media1.fl.yelpcdn.com/bphoto/FwJ0KhicshnnZzNNBoRBDg/o.jpg,Bahama Breeze,2,3.5,423,38.6424537339066,-77.296079073742,Woodbridge
618,"[{'alias': 'southern', 'title': 'Southern'}, {'alias': 'seafood', 'title': 'Seafood'}, {'alias': 'sandwiches', 'title': 'Sandwiches'}]",lmqLenXVLXpmCaml5zHWRg,https://s3-media2.fl.yelpcdn.com/bphoto/6A3iv3Q_cgCtTdW_iS1ltw/o.jpg,Fry Basket,1,3.5,8,36.7818678170443,-76.3354593515396,Chesapeake
3951,"[{'alias': 'hotdogs', 'title': 'Fast Food'}, {'alias': 'burgers', 'title': 'Burgers'}]",jGWJoAEmkboAixiNNbqbdw,https://s3-media2.fl.yelpcdn.com/bphoto/wiE6lKTyV0HQB8UfVKopmg/o.jpg,Burger King,1,3.0,5,38.5625397,-78.746686,Broadway
4066,"[{'alias': 'newamerican', 'title': 'American (New)'}]",Mhr9EigSDHliBLbk7YWKjQ,https://s3-media2.fl.yelpcdn.com/bphoto/dh1-8Y84t2-nLBtJKPp9hQ/o.jpg,Sam's Inn Restaurant,2,3.5,28,38.5218,-77.29079,Quantico
4913,"[{'alias': 'tradamerican', 'title': 'American (Traditional)'}, {'alias': 'burgers', 'title': 'Burgers'}]",Gd0SMGsZKKaUlH7FEqY1mw,https://s3-media1.fl.yelpcdn.com/bphoto/B9uJs5w2yJr6xMzRnPuN1A/o.jpg,Ruby Tuesday,2,3.0,32,39.1661758422852,-78.165153503418,Winchester
3107,"[{'alias': 'breakfast_brunch', 'title': 'Breakfast & Brunch'}, {'alias': 'tradamerican', 'title': 'American (Traditional)'}, {'alias': 'diners', 'title': 'Diners'}]",GhClnmuLeAYuHc1_8BaqGA,https://s3-media3.fl.yelpcdn.com/bphoto/1YwKrKNf3gKUr9T731DeBw/o.jpg,Waffle House,1,4.0,20,37.80334,-79.41156,Lexington
3479,"[{'alias': 'buffets', 'title': 'Buffets'}, {'alias': 'steak', 'title': 'Steakhouses'}, {'alias': 'tradamerican', 'title': 'American (Traditional)'}]",I4FepR2J5Yso460sYEs31g,https://s3-media2.fl.yelpcdn.com/bphoto/AC7X55F_rJOBod51ShkvzA/o.jpg,Wood Grill Buffet,2,4.0,108,38.07454,-78.47945,Charlottesville
1647,"[{'alias': 'breakfast_brunch', 'title': 'Breakfast & Brunch'}, {'alias': 'tradamerican', 'title': 'American (Traditional)'}]",a_VhACkT0avjeMorl0A2Wg,https://s3-media1.fl.yelpcdn.com/bphoto/A4AYm5Rq5llfd7BBEZ1u8A/o.jpg,First Watch,2,4.5,374,37.1006939,-76.4910175,Newport News
2554,"[{'alias': 'bars', 'title': 'Bars'}, {'alias': 'tradamerican', 'title': 'American (Traditional)'}, {'alias': 'breweries', 'title': 'Breweries'}]",32yT89mVROyH8CzNIzXvMQ,https://s3-media1.fl.yelpcdn.com/bphoto/Q6Yau7BJq6zgvGpENwr2wQ/o.jpg,Jack Mason's Tavern and Brewery,2,4.5,83,37.8150571494677,-79.8278430740967,Clifton Forge
3593,"[{'alias': 'bbq', 'title': 'Barbeque'}, {'alias': 'southern', 'title': 'Southern'}]",xzPqps3q7Xw05r5wkRqX0w,https://s3-media2.fl.yelpcdn.com/bphoto/em5l4tP90mjjyhzeTvqSpw/o.jpg,Log Cabin Barbecue,1,4.0,100,38.3863296508789,-78.7022933959961,Elkton
869,"[{'alias': 'seafood', 'title': 'Seafood'}, {'alias': 'burgers', 'title': 'Burgers'}, {'alias': 'sandwiches', 'title': 'Sandwiches'}]",1s1o9UzL5feQGGv4Nwv0Jw,https://s3-media3.fl.yelpcdn.com/bphoto/2hv81ux-XKNBAF6zPOfHEg/o.jpg,The Surry Seafood Company,2,3.5,76,37.1767417,-76.8057049,Surry
2859,"[{'alias': 'mexican', 'title': 'Mexican'}]",HfeFd5nfDUtjzT3YcjDR_A,https://s3-media2.fl.yelpcdn.com/bphoto/YOM4fUIVFu541azPAkF8Fw/o.jpg,El Vaquero West - Lake Monticello,1,3.5,44,37.89874859857,-78.3128535747528,Palmyra
1042,"[{'alias': 'newamerican', 'title': 'American (New)'}, {'alias': 'lounges', 'title': 'Lounges'}]",lgT_wHG_sOjqS79nbrjZKg,https://s3-media1.fl.yelpcdn.com/bphoto/csrMGFL4jCNIil3yGiOpEA/o.jpg,Tempt Restaurant Lounge,2,4.5,72,36.8591231325818,-75.9823677820876,Virginia Beach
1477,"[{'alias': 'pizza', 'title': 'Pizza'}, {'alias': 'italian', 'title': 'Italian'}, {'alias': 'chicken_wings', 'title': 'Chicken Wings'}]",XiYqbu1cZihrHgr66AT3qA,https://s3-media4.fl.yelpcdn.com/bphoto/5hfoP8qcFwumy1xF-M-Z2A/o.jpg,Pizza Hut,1,2.0,14,37.1371917724609,-80.3612518310547,Christiansburg
356,"[{'alias': 'mexican', 'title': 'Mexican'}]",W8PeONYb2u9Mqf0XAi9tIA,https://s3-media4.fl.yelpcdn.com/bphoto/igOSsRZjD7lit96XMqKAlA/o.jpg,Mi Finca 3,2,4.0,22,36.9320602,-82.633049,Norton
1162,"[{'alias': 'mexican', 'title': 'Mexican'}]",0wkwCR_dupAKkgkg0JdHhg,https://s3-media2.fl.yelpcdn.com/bphoto/fOZTJksgDWY8pQp_kvkYJA/o.jpg,Mexico Viejo,2,3.0,51,37.068353,-79.642877,Moneta
4918,"[{'alias': 'chinese', 'title': 'Chinese'}]",BMuTd0sym3iu8AdoC5FSLQ,https://s3-media4.fl.yelpcdn.com/bphoto/ZCVP_HfJAbs6vhMs9ljkJQ/o.jpg,China Wok,2,3.5,28,39.16349,-78.16832,Winchester
1338,"[{'alias': 'cocktailbars', 'title': 'Cocktail Bars'}, {'alias': 'burgers', 'title': 'Burgers'}, {'alias': 'tradamerican', 'title': 'American (Traditional)'}]",q88mM8O4SAvOzhJwLOTIiw,https://s3-media4.fl.yelpcdn.com/bphoto/4o4zL3eVBHDI0pSpsG685g/o.jpg,Oyster Bar & Steaks,2,3.5,49,36.9102362974862,-76.0742313042283,Virginia Beach
5033,"[{'alias': 'poke', 'title': 'Poke'}, {'alias': 'sushi', 'title': 'Sushi Bars'}, {'alias': 'hawaiian', 'title': 'Hawaiian'}]",mGmKqTzynHWObm0h4GedGw,https://s3-media1.fl.yelpcdn.com/bphoto/5yiSyLoQfdBJveo8aOuY5g/o.jpg,Poke Sushi Bowl,2,4.0,41,39.02325,-77.39448,Sterling
5109,"[{'alias': 'pizza', 'title': 'Pizza'}, {'alias': 'desserts', 'title': 'Desserts'}, {'alias': 'italian', 'title': 'Italian'}]",UshjkWfh2EKtIg1HIuyrRA,https://s3-media3.fl.yelpcdn.com/bphoto/9Rakr8Dywe4RyrVCYvrDrQ/o.jpg,Rasco NY Pizza,1,4.0,28,39.2750364599836,-77.6399082791156,Lovettsville
4112,"[{'alias': 'burgers', 'title': 'Burgers'}, {'alias': 'hotdogs', 'title': 'Fast Food'}]",LEWVAee3uVJAN_ZB5Irpng,https://s3-media2.fl.yelpcdn.com/bphoto/AyoolppB_t5yIQYrhR6luQ/o.jpg,Burger King,1,3.0,4,38.6611684348338,-78.4915852546692,Luray
2915,"[{'alias': 'japanese', 'title': 'Japanese'}]",S_3C8KlOPRt7OK4zahSEOg,https://s3-media3.fl.yelpcdn.com/bphoto/hos9CZ8rKImBf_VHgNhLjQ/o.jpg,Umi Sushi Bistro,2,4.0,154,37.65203,-77.61814,Richmond
3814,"[{'alias': 'steak', 'title': 'Steakhouses'}]",A4uLFhXuuXZ8ZoOZ2_depA,https://s3-media3.fl.yelpcdn.com/bphoto/Eh3jk_5eoZZuEsegZurvgw/o.jpg,Dan's Steak House,2,3.0,49,38.6430969238281,-78.6034088134766,Luray
3837,"[{'alias': 'hotdogs', 'title': 'Fast Food'}, {'alias': 'chicken_wings', 'title': 'Chicken Wings'}, {'alias': 'chickenshop', 'title': 'Chicken Shop'}]",a8kR765aewRm9Zm3dtEn8w,https://s3-media4.fl.yelpcdn.com/bphoto/OXRA3K7Na531aXhcGcC8yA/o.jpg,KFC,1,1.5,10,38.4663,-77.9989,Culpeper
4985,"[{'alias': 'burgers', 'title': 'Burgers'}]",k1pBSREUh2pFAWEISUbEtg,https://s3-media1.fl.yelpcdn.com/bphoto/bYjfiJ7mxfUoiXuhHDH0KA/o.jpg,19 West Gourmet Burgers,2,4.0,45,39.1157058075607,-77.5656987726688,Leesburg
4955,"[{'alias': 'hotdogs', 'title': 'Fast Food'}, {'alias': 'chicken_wings', 'title': 'Chicken Wings'}, {'alias': 'chickenshop', 'title': 'Chicken Shop'}]",93gpNUGZR4dr4s-yUWIzQA,https://s3-media3.fl.yelpcdn.com/bphoto/PLgQTf-3V4qPz4yqqJilXA/o.jpg,KFC,1,2.0,27,39.1436,-77.7138,Purcellville
332,"[{'alias': 'seafood', 'title': 'Seafood'}, {'alias': 'pizza', 'title': 'Pizza'}, {'alias': 'newamerican', 'title': 'American (New)'}]",egu3rUT69g7IHA8CmMqgpg,https://s3-media3.fl.yelpcdn.com/bphoto/7tHldZv67QLhtVqefPSCcA/o.jpg,Baja Restaurant,2,3.0,113,36.69699,-75.92734,Virginia Beach
4110,"[{'alias': 'newamerican', 'title': 'American (New)'}]",iXs8rC-ztL1zU_ekJswEGw,https://s3-media1.fl.yelpcdn.com/bphoto/a-cjLqVUyNE0P3n6hkCYBA/o.jpg,Heartpine Cafe,2,2.5,10,38.6654490977526,-78.4826434403658,Luray
2882,"[{'alias': 'seafood', 'title': 'Seafood'}, {'alias': 'seafoodmarkets', 'title': 'Seafood Markets'}]",4PkYsRT7CBORSK9fPobxfw,https://s3-media2.fl.yelpcdn.com/bphoto/btAI5b5R_xF17Tpp7acyjQ/o.jpg,JJ's Seafood,2,5.0,2,37.66896,-77.679266,Manakin-Sabot
1744,"[{'alias': 'mexican', 'title': 'Mexican'}]",HHd2OoENubRYzD6ChZaIQQ,https://s3-media2.fl.yelpcdn.com/bphoto/H4tDHxgkx71V9LlocTXnYw/o.jpg,El Maguey Mexican Restaurant,1,4.5,43,37.54066,-75.82233,Exmore
1258,"[{'alias': 'tradamerican', 'title': 'American (Traditional)'}, {'alias': 'sandwiches', 'title': 'Sandwiches'}]",JSdV7732BFXVOfln5RNJ6A,https://s3-media3.fl.yelpcdn.com/bphoto/DI8kQC-GeYT68VsfDobCSQ/o.jpg,Rick & Libbys,1,3.5,19,37.04355,-76.47166,Newport News
3866,"[{'alias': 'burgers', 'title': 'Burgers'}, {'alias': 'hotdogs', 'title': 'Fast Food'}]",iCOQyEu0d9mhEy1LdBtaSg,https://s3-media1.fl.yelpcdn.com/bphoto/XIPf7n-ELJGNnhQ0ErLd6g/o.jpg,Five Guys,2,4.0,15,38.3587448901446,-77.5226161205391,Fredericksburg
3754,"[{'alias': 'indpak', 'title': 'Indian'}]",uVLGl-wEaD6ms8mg7ptUng,https://s3-media4.fl.yelpcdn.com/bphoto/48LAMPM2ujcgxugP3cejNA/o.jpg,Taj of India,2,4.5,30,38.44888,-78.86815,Harrisonburg
1116,"[{'alias': 'hotdogs', 'title': 'Fast Food'}, {'alias': 'burgers', 'title': 'Burgers'}, {'alias': 'coffee', 'title': 'Coffee & Tea'}]",1DrlNk-uSgNUxXxma_OPAA,https://s3-media2.fl.yelpcdn.com/bphoto/Dy594IxnHgSYUvmE2EpJaw/o.jpg,McDonald's,1,2.0,13,36.9473859727718,-80.9487555921078,Max Meadows
2015,"[{'alias': 'pizza', 'title': 'Pizza'}, {'alias': 'italian', 'title': 'Italian'}, {'alias': 'chicken_wings', 'title': 'Chicken Wings'}]",JVafvn-ylf6Pz6kXzIHr1g,https://s3-media2.fl.yelpcdn.com/bphoto/y5kccn8fFSSriy8Om6wSmg/o.jpg,Pizza Hut,2,3.0,4,37.2914629204392,-78.399057954102,Farmville
4335,"[{'alias': 'mexican', 'title': 'Mexican'}, {'alias': 'salvadoran', 'title': 'Salvadoran'}]",Qbrv-gY1Rh3HhnUdf2aw1Q,https://s3-media3.fl.yelpcdn.com/bphoto/kDOvHrAA8_u5bcgtH_e72g/o.jpg,Las Carnitas,2,4.0,20,38.73407,-77.09977,Alexandria
2647,"[{'alias': 'irish', 'title': 'Irish'}, {'alias': 'pubs', 'title': 'Pubs'}]",TfNZdF54Sq-axVAL1J5IeQ,https://s3-media1.fl.yelpcdn.com/bphoto/LUnPNnOsrgrob-Y25LzFfA/o.jpg,Rare Olde Times,2,4.5,51,37.597706,-77.607405,Henrico
2594,"[{'alias': 'delis', 'title': 'Delis'}]",gXIOSnMl7yvwDHuP3VxB4A,https://s3-media4.fl.yelpcdn.com/bphoto/q2tMuzv77ACjhXsSSBszXw/o.jpg,lunchbox 22,2,4.5,8,37.8134299,-77.656,Montpelier
3441,"[{'alias': 'diners', 'title': 'Diners'}, {'alias': 'breakfast_brunch', 'title': 'Breakfast & Brunch'}, {'alias': 'tradamerican', 'title': 'American (Traditional)'}]",qHj7CdqZPhupYZ5-wXwjjQ,https://s3-media2.fl.yelpcdn.com/bphoto/r5fhfVlP3xe7CCLIyQT1Iw/o.jpg,Basic City Luncheonette,1,3.5,13,38.0707588195801,-78.875,Waynesboro
2874,"[{'alias': 'mexican', 'title': 'Mexican'}]",rMyveyhsXD0FCvK97RUUSQ,https://s3-media2.fl.yelpcdn.com/bphoto/Ed9lFI4bBntHLnVmJs4ZOw/o.jpg,Sabor,1,4.0,42,38.0104498,-77.9088358,Mineral
445,"[{'alias': 'seafood', 'title': 'Seafood'}, {'alias': 'steak', 'title': 'Steakhouses'}]",oji_Wv4hjf12mS0Wk3HZjg,https://s3-media4.fl.yelpcdn.com/bphoto/omlyKmLWjanWyht7_CuQ7A/o.jpg,Ippys,2,4.0,25,37.018798828125,-79.8884735107422,Rocky Mount
2644,"[{'alias': 'mexican', 'title': 'Mexican'}]",JhEJHL_UWV54UpHwxvkmow,https://s3-media2.fl.yelpcdn.com/bphoto/NPEGT0cZYMOaGoQH7XFqDA/o.jpg,Pepe's Mexican Restaurant,2,4.5,243,37.5018023510911,-77.5727968899239,Richmond
3097,"[{'alias': 'sandwiches', 'title': 'Sandwiches'}, {'alias': 'burgers', 'title': 'Burgers'}, {'alias': 'chicken_wings', 'title': 'Chicken Wings'}]",RUAqoF9cupnZVJ_zBmC2oA,https://s3-media3.fl.yelpcdn.com/bphoto/7FmOsIY3g5NxbM4MAFWxXw/o.jpg,Macado's,2,3.0,81,37.78576,-79.4415,Lexington
452,"[{'alias': 'pizza', 'title': 'Pizza'}]",hOENEFAg1OJaWan9Ov4UWQ,https://s3-media1.fl.yelpcdn.com/bphoto/i4dNGlV1SKm6uK1UTVwJiQ/o.jpg,Elizabeth's Pizza,2,3.5,11,36.7118,-79.90791,Collinsville
3161,"[{'alias': 'breakfast_brunch', 'title': 'Breakfast & Brunch'}, {'alias': 'burgers', 'title': 'Burgers'}, {'alias': 'tradamerican', 'title': 'American (Traditional)'}]",eQLQGVrteuJ2WL7VurtBsw,https://s3-media4.fl.yelpcdn.com/bphoto/gNHOFYFUlaXGyzuj6mCpVQ/o.jpg,Andy's Restaurant & Lounge,1,4.5,5,37.7579816698227,-77.4754275077938,Ashland
4542,"[{'alias': 'thai', 'title': 'Thai'}]",1yU9JEJ6QxR4GHjVBgKK5Q,https://s3-media2.fl.yelpcdn.com/bphoto/4rviVB62rLW4kXikuEY08g/o.jpg,9 Padthai,2,4.5,96,38.7830299,-77.1878,Springfield
3114,"[{'alias': 'hotdogs', 'title': 'Fast Food'}, {'alias': 'chicken_wings', 'title': 'Chicken Wings'}, {'alias': 'chickenshop', 'title': 'Chicken Shop'}]",cTgLBtNYlzXzLjIS4EK_1g,https://s3-media4.fl.yelpcdn.com/bphoto/qmz0p6m2_3Dvw_6t_J_0Iw/o.jpg,KFC,1,1.5,4,37.77832,-79.43565,Lexington
14,"[{'alias': 'southern', 'title': 'Southern'}, {'alias': 'bbq', 'title': 'Barbeque'}]",_6JFahU9elgdShYs3k90gA,https://s3-media4.fl.yelpcdn.com/bphoto/lRlj4B_BlA8h809iMVzsFw/o.jpg,Eatz on Moore Street,1,4.5,96,36.595538,-82.183219,Bristol
4347,"[{'alias': 'mexican', 'title': 'Mexican'}, {'alias': 'foodtrucks', 'title': 'Food Trucks'}]",z5d-swDs9yWBIM48TBubzQ,https://s3-media1.fl.yelpcdn.com/bphoto/mISi0aVa3J0CCh4ybBZeQg/o.jpg,I'Guana Taco,1,5.0,15,38.8677316,-78.5183866,Woodstock
945,"[{'alias': 'italian', 'title': 'Italian'}, {'alias': 'pizza', 'title': 'Pizza'}]",vLGJs7lxvQoFrJKWOY167A,https://s3-media2.fl.yelpcdn.com/bphoto/oAJwjRGttcGI3jkbzBK2Hg/o.jpg,Alaina's Pizzeria by East Side,2,3.5,50,36.8203742314788,-76.3796189054847,Portsmouth
247,"[{'alias': 'mexican', 'title': 'Mexican'}]",Aob5YHeBIqISwCP8lcSrCA,https://s3-media3.fl.yelpcdn.com/bphoto/r8Lxn4zalf8HjPWzF1KosQ/o.jpg,Los Cocos Mexican Restaurant,1,4.5,14,36.7168939462955,-78.1617149520097,South Hill
3392,"[{'alias': 'wine_bars', 'title': 'Wine Bars'}, {'alias': 'sandwiches', 'title': 'Sandwiches'}]",HowgFjda4mV4ql07dtwb0Q,https://s3-media3.fl.yelpcdn.com/bphoto/uuM4PldWvJrcm0tG8JiSAA/o.jpg,Yelping Dog Wine,2,4.5,62,38.1498149,-79.072104,Staunton
360,"[{'alias': 'tradamerican', 'title': 'American (Traditional)'}]",eQOPuOeUsnthD_D55soAMQ,https://s3-media4.fl.yelpcdn.com/bphoto/yI-PbdwOPjwoLnWNRPWomQ/o.jpg,Reno's of Wise,2,3.0,10,36.9696195,-82.5945547,Wise
4769,"[{'alias': 'salad', 'title': 'Salad'}, {'alias': 'noodles', 'title': 'Noodles'}, {'alias': 'vegetarian', 'title': 'Vegetarian'}]",kPA9s_JmevWi1d2bJ1rwMQ,https://s3-media2.fl.yelpcdn.com/bphoto/j8Hi9-YXUrci42rd-Ec1OQ/o.jpg,honeygrow,2,3.5,85,38.95503,-77.36359,Reston
2559,"[{'alias': 'coffee', 'title': 'Coffee & Tea'}, {'alias': 'soup', 'title': 'Soup'}, {'alias': 'sandwiches', 'title': 'Sandwiches'}]",N9Q4ADexDMmcJ3pvJovfIg,https://s3-media3.fl.yelpcdn.com/bphoto/KAOCQmWym_Xc7OvCOnq_Kg/o.jpg,The Main Street Shoppe,2,4.5,9,37.7919998168945,-79.9966812133789,Covington
3601,"[{'alias': 'delis', 'title': 'Delis'}, {'alias': 'breakfast_brunch', 'title': 'Breakfast & Brunch'}, {'alias': 'tradamerican', 'title': 'American (Traditional)'}]",Nd6W2JVVi4-V0eGMVkqzWg,https://s3-media3.fl.yelpcdn.com/bphoto/8o5NVG7UugjK3SNzK76fog/o.jpg,Olive's Grill,2,3.5,8,38.232039,-78.371124,Ruckersville
2422,"[{'alias': 'italian', 'title': 'Italian'}, {'alias': 'pizza', 'title': 'Pizza'}]",V7hdi78O5QMyPSxa2Lxz0g,https://s3-media1.fl.yelpcdn.com/bphoto/5CxgQY9Fm5qjHTOiImDiog/o.jpg,Pino's Pizza Italian Family Restaurant,2,4.0,27,37.4381294,-77.4707184,Richmond
2167,"[{'alias': 'bbq', 'title': 'Barbeque'}]",486lXdzvx7nqZWhQaaVF9Q,https://s3-media3.fl.yelpcdn.com/bphoto/vmBsmYl1nKrbqQqRsDyVIg/o.jpg,Scoot's BBQ,1,4.0,84,37.2685811293531,-76.4944003989518,Gloucester Point
3586,"[{'alias': 'mexican', 'title': 'Mexican'}]",WRbtMQTYor38UaVKA_YQqQ,https://s3-media1.fl.yelpcdn.com/bphoto/u4-Ydhvfu6hYuy8_Q96K1Q/o.jpg,El Paso Mexican Grille,2,4.0,62,38.40707,-78.61838,Elkton
2342,"[{'alias': 'newamerican', 'title': 'American (New)'}]",p3uCBXZaygcuXm5rVIVgmg,https://s3-media4.fl.yelpcdn.com/bphoto/KnzNtECVVPKqhQhPdml21g/o.jpg,Sid's Restaurant & Drive In,1,3.5,6,37.4632683,-79.1191177,Madison Heights
4316,"[{'alias': 'mexican', 'title': 'Mexican'}]",uP5yGSshBaJg7EDQMQSI0w,https://s3-media3.fl.yelpcdn.com/bphoto/lzM6hcHJDQFEAyX0MLT2nQ/o.jpg,Tacos El Costalilla,1,4.5,182,38.74401,-77.08483,Alexandria
1454,"[{'alias': 'japanese', 'title': 'Japanese'}, {'alias': 'steak', 'title': 'Steakhouses'}]",sCsytJYwfESzzIHZnwxb2Q,https://s3-media4.fl.yelpcdn.com/bphoto/3iMfOPmxQsVPrnSteemZjw/o.jpg,Sakura Japanese Steakhouse,1,3.0,77,37.1625747680664,-80.4214172363281,Christiansburg
5002,"[{'alias': 'belgian', 'title': 'Belgian'}, {'alias': 'bars', 'title': 'Bars'}]",7tUkxdQ5GHLcPkKObKncLQ,https://s3-media3.fl.yelpcdn.com/bphoto/4u8bf5mgdOChPTBCX73G8w/o.jpg,Delirium Cafe USA,2,3.5,167,39.1141999,-77.56536,Leesburg
3482,"[{'alias': 'tradamerican', 'title': 'American (Traditional)'}]",bqXCjk_ZPc5uloJ2t8djkQ,https://s3-media2.fl.yelpcdn.com/bphoto/sHLrk_-dWYLsuCQMN7Um3w/o.jpg,TJ's Tavern,2,3.5,24,38.1005363464355,-78.4634475708008,Charlottesville
490,"[{'alias': 'restaurants', 'title': 'Restaurants'}]",wUzxaztSx5k9gn3P_BmrJQ,https://s3-media1.fl.yelpcdn.com/bphoto/ppy0cUwnkEnd2gD-r51www/o.jpg,Dairy Express,1,3.5,3,36.7419350892305,-78.9231956005096,Halifax
862,"[{'alias': 'italian', 'title': 'Italian'}, {'alias': 'pizza', 'title': 'Pizza'}, {'alias': 'sandwiches', 'title': 'Sandwiches'}]",6fVNxU3qGt1UYKXBLyjeSA,https://s3-media2.fl.yelpcdn.com/bphoto/2lac00W7PCsB4fKDr1SvGA/o.jpg,Giuseppe's Pizza,2,4.0,29,37.1750744026893,-77.4992490782309,Petersburg
1894,"[{'alias': 'tacos', 'title': 'Tacos'}, {'alias': 'cocktailbars', 'title': 'Cocktail Bars'}]",92vuFkbQQZMQdFCbaNYTtA,https://s3-media2.fl.yelpcdn.com/bphoto/jsBNECEH7PwujrhDqwY1-Q/o.jpg,Tuco's Taqueria Garaje,2,3.5,100,37.2723009474612,-79.9495000783352,Roanoke
4397,"[{'alias': 'pizza', 'title': 'Pizza'}]",IXIWuWgl3gAi9gp8eXMGzA,https://s3-media2.fl.yelpcdn.com/bphoto/Ny-OHAhaElJe7WToElwxpA/o.jpg,Little Caesars,1,2.0,10,38.7301366241625,-77.8015653711326,Warrenton
2045,"[{'alias': 'seafood', 'title': 'Seafood'}]",fyHKwO0WCRJemGy0CZFZNg,https://s3-media2.fl.yelpcdn.com/bphoto/UZSy9IFz5wtNYdSk-vPEaQ/o.jpg,Latitude Seafood,2,3.5,204,37.5138499929388,-77.6930417583394,Midlothian
2572,"[{'alias': 'cantonese', 'title': 'Cantonese'}]",bo5ZZDVcdDF61e0neivLLg,https://s3-media2.fl.yelpcdn.com/bphoto/WngEBbddIG7x_2QevQC4aQ/o.jpg,Canton Chinese Restaurant,1,4.0,13,37.7355368358165,-79.3549644676264,Buena Vista
3915,"[{'alias': 'bbq', 'title': 'Barbeque'}, {'alias': 'southern', 'title': 'Southern'}, {'alias': 'tradamerican', 'title': 'American (Traditional)'}]",lHiJkAMzoJNBMb4aHmdRBQ,https://s3-media3.fl.yelpcdn.com/bphoto/XeqeMPkykFnk2ubp4_qk4Q/o.jpg,Dickey's Barbecue Pit,2,3.0,13,38.340668,-77.071363,King George
1362,"[{'alias': 'breakfast_brunch', 'title': 'Breakfast & Brunch'}, {'alias': 'cafes', 'title': 'Cafes'}]",uqXTZBWaYHk5Njhx_0vH0Q,https://s3-media2.fl.yelpcdn.com/bphoto/WpkOLtl4v1AWu051CD6hKg/o.jpg,Simple Eats,2,4.0,183,36.9100899,-76.08168,Virginia Beach
2654,"[{'alias': 'gastropubs', 'title': 'Gastropubs'}, {'alias': 'burgers', 'title': 'Burgers'}, {'alias': 'seafood', 'title': 'Seafood'}]",nl7ZuC97NZ46UYbruUHvwA,https://s3-media3.fl.yelpcdn.com/bphoto/J4OVhdL6iSQcSUL6a_WMLA/o.jpg,Burger Bach,2,3.5,100,37.50198,-77.63773,Midlothian
506,"[{'alias': 'pizza', 'title': 'Pizza'}, {'alias': 'salad', 'title': 'Salad'}, {'alias': 'burgers', 'title': 'Burgers'}]",6x5YtqOixC6WXCLLNnKk8A,https://s3-media2.fl.yelpcdn.com/bphoto/DPNh8hxoe7LjyQ7fLXke5Q/o.jpg,Marro's Italian Restaurant,1,4.5,3,36.9618972335325,-78.1254061773574,Kenbridge
4044,"[{'alias': 'japanese', 'title': 'Japanese'}]",lIaManFg_ozLXAZ9_-RsmQ,https://s3-media4.fl.yelpcdn.com/bphoto/_iwoSXNht2JL1733oxIH0w/o.jpg,I Luv Teriyaki,1,4.0,36,38.515732,-77.3694986,Stafford
25,"[{'alias': 'pizza', 'title': 'Pizza'}, {'alias': 'bars', 'title': 'Bars'}, {'alias': 'sandwiches', 'title': 'Sandwiches'}]",eyHuhkGdW9EkQBYG7-rBJg,https://s3-media4.fl.yelpcdn.com/bphoto/C38OVXSDgA68_NRpJnubow/o.jpg,Mellow Mushroom,2,4.0,47,36.637363295662,-82.115909966766,Bristol
3442,"[{'alias': 'steak', 'title': 'Steakhouses'}, {'alias': 'tradamerican', 'title': 'American (Traditional)'}, {'alias': 'seafood', 'title': 'Seafood'}]",KAiWIPINkpxXZY5gvBHIKA,https://s3-media1.fl.yelpcdn.com/bphoto/NckkCw_qw6WIZ0haTX2gbw/o.jpg,Gavid's Steakhouse Family Grill,2,3.0,10,38.07347,-78.9013499,Waynesboro
1222,"[{'alias': 'italian', 'title': 'Italian'}]",mZ4VQeBzIHveT17en_r10w,https://s3-media4.fl.yelpcdn.com/bphoto/R17oEL0Q0RMs8Xv2d0O5sA/o.jpg,Giuseppe's,2,4.5,387,37.3157649243828,-76.7381714242729,Williamsburg
1113,"[{'alias': 'burgers', 'title': 'Burgers'}, {'alias': 'hotdogs', 'title': 'Fast Food'}]",1vWSS0WRdXCnXLT_tpwB7g,https://s3-media2.fl.yelpcdn.com/bphoto/gsIThwDfBGYGp_0NN2JkQA/o.jpg,Wendy's,1,3.0,5,36.9452498853207,-80.9467311948538,Max Meadows
4393,"[{'alias': 'hotdogs', 'title': 'Fast Food'}, {'alias': 'burgers', 'title': 'Burgers'}, {'alias': 'coffee', 'title': 'Coffee & Tea'}]",-wHkZbcqAtxgSckqy0EmAw,https://s3-media3.fl.yelpcdn.com/bphoto/-YGWXKc4ns_LZgZ9Awt6Sw/o.jpg,McDonald's,1,2.0,31,38.8620809,-77.8481751,Marshall
3606,"[{'alias': 'grocery', 'title': 'Grocery'}, {'alias': 'mexican', 'title': 'Mexican'}]",iZzKMIDYuEKzMC3JgRZm1g,,Mexi-Mart,1,5.0,2,38.22576,-78.37364,Ruckersville
1471,"[{'alias': 'sushi', 'title': 'Sushi Bars'}, {'alias': 'chinese', 'title': 'Chinese'}, {'alias': 'soup', 'title': 'Soup'}]",dKGft9pzdjhg5J54DRaj1w,https://s3-media2.fl.yelpcdn.com/bphoto/nOhRl3btyzxxh3cmtfvsLA/o.jpg,Asian Cafe,2,3.5,36,37.1622017709313,-80.4250216442645,Christiansburg
4785,"[{'alias': 'tradamerican', 'title': 'American (Traditional)'}, {'alias': 'breakfast_brunch', 'title': 'Breakfast & Brunch'}]",LvHfls2SlJPWlXyvSfVjjA,https://s3-media3.fl.yelpcdn.com/bphoto/jIYjshYJMVG_zO4gQwl_ZQ/o.jpg,Ted's Bulletin,2,3.5,632,38.9588885700961,-77.3583636466604,Reston
3128,"[{'alias': 'burgers', 'title': 'Burgers'}, {'alias': 'tradamerican', 'title': 'American (Traditional)'}]",RddGgzYOPF0fY94trvAoMg,https://s3-media1.fl.yelpcdn.com/bphoto/hr_uR_gAXA57i8dhZX5O3g/o.jpg,Jakes Bar and Grill,2,4.5,82,38.0648229,-78.891511,Waynesboro
433,"[{'alias': 'pizza', 'title': 'Pizza'}, {'alias': 'italian', 'title': 'Italian'}]",nMbPdtRFPX2lzVrC09u6Eg,https://s3-media4.fl.yelpcdn.com/bphoto/8GZkGc3q9b6ZFVFqw-TfnA/o.jpg,Tony's Pizza,2,4.0,9,36.76234,-80.73473,Hillsville
2603,"[{'alias': 'donuts', 'title': 'Donuts'}, {'alias': 'cafes', 'title': 'Cafes'}, {'alias': 'breakfast_brunch', 'title': 'Breakfast & Brunch'}]",kess_NYYtVs7jP0CBopSww,https://s3-media2.fl.yelpcdn.com/bphoto/IXpmHKhb8_EUslKCMyYE3g/o.jpg,Sweet Shop Donuts Cafe,1,4.0,36,37.5160942077637,-77.7903137207031,Powhatan
4820,"[{'alias': 'pizza', 'title': 'Pizza'}, {'alias': 'italian', 'title': 'Italian'}, {'alias': 'wine_bars', 'title': 'Wine Bars'}]",tPes69KJaa0NoGc0d9kZdQ,https://s3-media4.fl.yelpcdn.com/bphoto/IhNETDerOGK3bzGO36TF4Q/o.jpg,Pazzo Pomodoro,2,4.0,306,38.906699123933,-77.2576603894104,Vienna
2985,"[{'alias': 'coffee', 'title': 'Coffee & Tea'}, {'alias': 'breakfast_brunch', 'title': 'Breakfast & Brunch'}, {'alias': 'bars', 'title': 'Bars'}]",m1zZJ5MuRuTXfUx0-uRdkg,https://s3-media2.fl.yelpcdn.com/bphoto/b3Kk43KiT78ycvYfl84rpQ/o.jpg,Bell Cafe,2,3.5,60,37.6356630205,-77.3579488690998,Mechanicsville
2195,"[{'alias': 'restaurants', 'title': 'Restaurants'}]",k5C6xyFHuPkYn0rSJ18UCQ,https://s3-media1.fl.yelpcdn.com/bphoto/p3U3wdAELDWVcHXnGhz4Fg/o.jpg,Elements 1010,3,3.0,12,37.224844,-76.667469,Williamsburg
4835,"[{'alias': 'thai', 'title': 'Thai'}]",ZfsSyCt7q_1JUbYEE46PEw,https://s3-media4.fl.yelpcdn.com/bphoto/l9bPhkOVTQNkkr7loBqqhA/o.jpg,Pasa Thai,2,3.5,128,38.9394239,-77.1761209,Mclean
4145,"[{'alias': 'irish', 'title': 'Irish'}, {'alias': 'irish_pubs', 'title': 'Irish Pub'}]",3942ex1yDA2fQfwvZeMvyQ,https://s3-media3.fl.yelpcdn.com/bphoto/T7RhPrrj8kHoWSN--PURsQ/o.jpg,McMahon's Irish Pub & Restaurant,2,4.0,100,38.72737,-77.80377,Warrenton
2236,"[{'alias': 'pizza', 'title': 'Pizza'}, {'alias': 'italian', 'title': 'Italian'}, {'alias': 'sandwiches', 'title': 'Sandwiches'}]",Xot1VI9qpiLtw66XFmXamg,https://s3-media2.fl.yelpcdn.com/bphoto/Xid3V8kW6k_Da2PEEL5k_Q/o.jpg,Leonardos,1,4.5,6,37.4991,-79.87967,Fincastle
2707,"[{'alias': 'bbq', 'title': 'Barbeque'}]",mOIS-n4z2hHM-tvpXGUpRQ,https://s3-media3.fl.yelpcdn.com/bphoto/KPIEu3O1Eorv7k4Kp_RCwA/o.jpg,ZZQ,2,4.0,146,37.56874,-77.4715,Richmond
4118,"[{'alias': 'burgers', 'title': 'Burgers'}, {'alias': 'hotdog', 'title': 'Hot Dogs'}, {'alias': 'sandwiches', 'title': 'Sandwiches'}]",1JDlpuUj3TZCnJAVz1jFXA,https://s3-media2.fl.yelpcdn.com/bphoto/T6OI60LMg8RVLgskykfELQ/o.jpg,Burgers N Things,1,3.5,29,38.658605,-78.226834,Sperryville
1102,"[{'alias': 'hotdogs', 'title': 'Fast Food'}, {'alias': 'tex-mex', 'title': 'Tex-Mex'}, {'alias': 'mexican', 'title': 'Mexican'}]",1ztC9N5yFBAbY9cPkU46Rw,https://s3-media1.fl.yelpcdn.com/bphoto/4JKQwUGR0xj7C1dH8wwYgA/o.jpg,Taco Bell,1,1.0,9,36.95869,-81.09605,Wytheville
3978,"[{'alias': 'tradamerican', 'title': 'American (Traditional)'}, {'alias': 'sportsbars', 'title': 'Sports Bars'}, {'alias': 'chicken_wings', 'title': 'Chicken Wings'}]",841UseDzqX-dcB-IJhYYTA,https://s3-media2.fl.yelpcdn.com/bphoto/0IojWPaUfgnI1U5PDVMNIw/o.jpg,Glory Days Grill,2,3.0,40,38.48278,-77.9697,Culpeper
4530,"[{'alias': 'korean', 'title': 'Korean'}, {'alias': 'bbq', 'title': 'Barbeque'}]",4lbPuTYSQdBJwjTKMhVMqA,https://s3-media1.fl.yelpcdn.com/bphoto/DiGo8JytBdF-XrBfzdwrmw/o.jpg,Breakers Korean BBQ & Grill,2,4.0,406,38.8451351639726,-77.2753271701141,Fairfax
2244,"[{'alias': 'mexican', 'title': 'Mexican'}]",_b3UmShzz5DCiAp1aSj_SQ,https://s3-media3.fl.yelpcdn.com/bphoto/-eLkL-ngtSwNu5fJDWrDsw/o.jpg,Alejandro's Mexican Grill,2,3.5,69,37.345319089386,-79.956583656583,Roanoke
4048,"[{'alias': 'diners', 'title': 'Diners'}]",qwtSuaIlIVCwMR-_baPjnw,https://s3-media3.fl.yelpcdn.com/bphoto/9dqkDTQ3aT0KwU1HWV8mGA/o.jpg,The Club House Restaurant,2,4.0,7,38.4721832275391,-77.3766937255859,Stafford
156,"[{'alias': 'mexican', 'title': 'Mexican'}]",Sdq4w915dc1-05Z8VuFf1g,https://s3-media1.fl.yelpcdn.com/bphoto/9L0sWGMAwlQsrLaVaV3Gdw/o.jpg,San Marcos,2,4.5,16,36.79323,-79.39328,Chatham
3139,"[{'alias': 'pizza', 'title': 'Pizza'}]",CkZaugVos5REeUJNPgM0gQ,https://s3-media3.fl.yelpcdn.com/bphoto/eHL_FmzJbr4SLvMtcfreAQ/o.jpg,Papa John's Pizza,2,2.0,5,37.90303,-78.34188,Palmyra
4093,"[{'alias': 'chinese', 'title': 'Chinese'}]",0JR-jcZMjtFkNT_G0WYNwA,https://s3-media3.fl.yelpcdn.com/bphoto/KVL9KTNytdlXnG5OUhNZJA/o.jpg,Double Dragon Chinese Restaurant,1,4.0,17,38.6287522,-78.7772475,Timberville
615,"[{'alias': 'pubs', 'title': 'Pubs'}, {'alias': 'tradamerican', 'title': 'American (Traditional)'}]",sEksAe-G4BZhBmRfphMrgg,https://s3-media4.fl.yelpcdn.com/bphoto/CnovHVu720vtDwn9gLROGw/o.jpg,Maxwell's Tavern,2,3.0,21,36.71387,-76.28165,Chesapeake
643,"[{'alias': 'sushi', 'title': 'Sushi Bars'}, {'alias': 'japanese', 'title': 'Japanese'}]",r8Po33nbA8msnCpvERQLrA,https://s3-media3.fl.yelpcdn.com/bphoto/aErEaSZ7DiMjZz1kBkpNGQ/o.jpg,Kagura Japanese Restaurant,2,3.5,105,36.71596,-76.23732,Chesapeake
4657,"[{'alias': 'coffee', 'title': 'Coffee & Tea'}, {'alias': 'breakfast_brunch', 'title': 'Breakfast & Brunch'}, {'alias': 'sandwiches', 'title': 'Sandwiches'}]",Aq99TSOX6popr1UK4po7gw,https://s3-media3.fl.yelpcdn.com/bphoto/JNkmhlzqTGIWTHz5Esvl8Q/o.jpg,Main Street Daily Grind,1,4.5,54,38.9174706,-78.1911359,Front Royal
1782,"[{'alias': 'tradamerican', 'title': 'American (Traditional)'}, {'alias': 'bbq', 'title': 'Barbeque'}, {'alias': 'venues', 'title': 'Venues & Event Spaces'}]",KsrMCDF689P4bTBrrbTLjA,https://s3-media3.fl.yelpcdn.com/bphoto/GzODN7PF9D7LQeTnz6V6lw/o.jpg,Bull and Bones Brewhaus and Grill,2,3.0,160,37.21316450558,-80.402031092401,Blacksburg
1068,"[{'alias': 'tex-mex', 'title': 'Tex-Mex'}, {'alias': 'hotdogs', 'title': 'Fast Food'}, {'alias': 'mexican', 'title': 'Mexican'}]",fVCRgfVuFyIJIVta9KMfbw,https://s3-media2.fl.yelpcdn.com/bphoto/tcitc1r3uAO68-P-N8LStg/o.jpg,Taco Bell,1,3.5,4,36.940284,-82.60629,Norton
3460,"[{'alias': 'chinese', 'title': 'Chinese'}, {'alias': 'sushi', 'title': 'Sushi Bars'}, {'alias': 'seafood', 'title': 'Seafood'}]",KuDlbdRyOVLHNaVcMERZXQ,https://s3-media1.fl.yelpcdn.com/bphoto/__gnaBbjpaajZZkk5mYFDg/o.jpg,Tea House,2,4.0,24,38.0518845,-78.6806059,Charlottesville
4725,"[{'alias': 'catering', 'title': 'Caterers'}, {'alias': 'italian', 'title': 'Italian'}]",PvEHp3W62k-uwR3JaD5L9Q,https://s3-media2.fl.yelpcdn.com/bphoto/yhJgG2rCNjXpjqxi2ZMtTw/o.jpg,Merone's,1,3.5,46,38.969954,-77.488899,Dulles
4343,"[{'alias': 'cafes', 'title': 'Cafes'}, {'alias': 'breakfast_brunch', 'title': 'Breakfast & Brunch'}, {'alias': 'sandwiches', 'title': 'Sandwiches'}]",l_syceyumMM3C5V6Oa_D2A,https://s3-media3.fl.yelpcdn.com/bphoto/LrawVhozR-qLby1eMrgraw/o.jpg,Woodstock Garden Cafe,1,5.0,77,38.870257,-78.536684,Woodstock
2328,"[{'alias': 'modern_european', 'title': 'Modern European'}, {'alias': 'steak', 'title': 'Steakhouses'}, {'alias': 'wine_bars', 'title': 'Wine Bars'}]",jMsGkywtD1UBjX-zZjsFpA,https://s3-media2.fl.yelpcdn.com/bphoto/HMeSzsUrRqRmt-qJ489dSA/o.jpg,Main Street Eatery & Catering,2,4.0,57,37.41447,-79.1423499,Lynchburg
330,"[{'alias': 'tradamerican', 'title': 'American (Traditional)'}, {'alias': 'bars', 'title': 'Bars'}]",pQUOoXgD1khyRBJUrufptQ,https://s3-media4.fl.yelpcdn.com/bphoto/VL_u6GJgQvbSMKAISEyz7g/o.jpg,Cabana Bar & Grill,2,3.5,18,36.6972732543945,-75.9254531860352,Virginia Beach
3573,"[{'alias': 'diners', 'title': 'Diners'}, {'alias': 'breakfast_brunch', 'title': 'Breakfast & Brunch'}, {'alias': 'hotdog', 'title': 'Hot Dogs'}]",Um1aXtxMom8WmhXjccJlMg,https://s3-media4.fl.yelpcdn.com/bphoto/-x6lr6axm_dYtRarKKmQFg/o.jpg,Armstrong's Restaurant,1,3.5,15,38.2000541687012,-79.0114593505859,Verona
2784,"[{'alias': 'burgers', 'title': 'Burgers'}, {'alias': 'hotdogs', 'title': 'Fast Food'}]",xJED5Yo-NkKksBBduBzezA,https://s3-media4.fl.yelpcdn.com/bphoto/AEs7VyAUjqDsqKf02iQQHg/o.jpg,Burger King,1,3.5,6,37.4993213971116,-77.0905352600652,New Kent
